id,nom_bureau,categorie,Code_postal,ville,Code_INSEE,lat,lng,latlong
00004A,ANGLEFORT RP,Relais poste commer??ant,1350,ANGLEFORT,1010,45.913897,5.809086,45.913897
00007A,BELLEGARDE ARLOD RP,Relais poste commer??ant,1200,BELLEGARDE SUR VALSERINE,1033,46.097553,5.815026,46.097553
00008A,ARS SUR FORMANS BP,Bureau de Poste,1480,ARS SUR FORMANS,1021,45.992899,4.821718,45.992899
00009A,ARTEMARE BP,Bureau de Poste,1510,ARTEMARE,1022,45.874238,5.692603,45.874238
00012A,BEAUPONT RP,Relais poste commer??ant,1270,BEAUPONT,1029,46.410523,5.264468,46.410523
00013A,BEAUREGARD AP,Agence postale communale,1480,BEAUREGARD,1030,46.002912,4.751093,46.002912
00015A,BELIGNEUX CAMP DE LA VALBONNE BP,Bureau de Poste,1360,BELIGNEUX,1032,45.848872,5.125244,45.848872
00016A,BELLEGARDE SUR VALSERINE PAL,Bureau de Poste,1200,BELLEGARDE SUR VALSERINE,1033,46.107098,5.824684,46.107098
00020A,BEYNOST BP,Bureau de Poste,1700,BEYNOST,1043,45.836577,5.000149,45.836577
00024A,BOLOZON AP,Agence postale communale,1450,BOLOZON,1051,46.19212,5.473216,46.19212
00028A,CORGENON RP,Relais poste commer??ant,1310,BUELLAS,1065,46.198072,5.159356,46.198072
00037A,CHAMPDOR AP,Agence postale communale,1110,CHAMPDOR,1080,46.016655,5.596165,46.016655
00039A,CHANAY AP,Agence postale communale,1420,CHANAY,1082,46.005389,5.785069,46.005389
00045A,CHATILLON LA PALUD AP,Agence postale communale,1320,CHATILLON LA PALUD,1092,45.972564,5.254418,45.972564
00052A,CHEVRY AP,Agence postale communale,1170,CHEVRY,1103,46.280826,6.039618,46.280826
00057A,CONDEISSIAT AP,Agence postale communale,1400,CONDEISSIAT,1113,46.156985,5.079904,46.156985
00058A,CONFORT RP,Relais poste commer??ant,1200,CONFORT,1114,46.149965,5.822667,46.149965
00066A,DIVONNE LES BAINS BP,Bureau de Poste,1220,DIVONNE LES BAINS,1143,46.35689,6.142471,46.35689
00072A,FEILLENS BP,Bureau de Poste,1570,FEILLENS,1159,46.335753,4.889533,46.335753
00074A,FOISSIAT RP,Relais poste commer??ant,1340,FOISSIAT,1163,46.37005158,5.17524029,46.37005158
00084A,JUJURIEUX AP,Agence postale communale,1640,JUJURIEUX,1199,46.0423,5.4102,46.0423
00106A,MONTLUEL BP,Bureau de Poste,1120,MONTLUEL,1262,45.849798,5.057299,45.849798
00117A,PARCIEUX AP,Agence postale communale,1600,PARCIEUX,1285,45.915498,4.824068,45.915498
00118A,PERON RP,Relais poste commer??ant,1630,PERON,1288,46.183411,5.928338,46.183411
00124A,PONT DE VAUX BP,Bureau de Poste,1190,PONT DE VAUX,1305,46.430064,4.938305,46.430064
00132A,SAINT ANDRE DE CORCY BP,Bureau de Poste,1390,ST ANDRE DE CORCY,1333,45.927691,4.956426,45.927691
00137A,SAINT DIDIER D AUSSIAT RP,Relais poste commer??ant,1340,ST DIDIER D AUSSIAT,1346,46.306273,5.060833,46.306273
00167A,THEZILLIEU AP,Agence postale communale,1110,THEZILLIEU,1417,45.893448,5.596994,45.893448
00172A,TRAMOYES RP,Relais poste commer??ant,1390,TRAMOYES,1424,45.874594,4.965866,45.874594
00177A,VERSAILLEUX RP,Relais poste commer??ant,1330,VERSAILLEUX,1434,45.980008,5.101274,45.980008
00181A,VILLENEUVE AP,Agence postale communale,1480,VILLENEUVE,1446,46.021593,4.83731,46.021593
00184A,VIRIAT AP,Agence postale communale,1440,VIRIAT,1451,46.254095,5.215534,46.254095
00185A,VIRIEU LE GRAND BP,Bureau de Poste,1510,VIRIEU LE GRAND,1452,45.848425,5.651505,45.848425
00196A,BOURG EN BRESSE MAGINOT BP,Bureau de Poste,1000,BOURG EN BRESSE,1053,46.210095,5.227309,46.210095
00205A,ANIZY LE GRAND,Bureau de Poste,2320,ANIZY LE GRAND,2018,49.5054,3.451645,49.5054
00222A,BLERANCOURT BP,Bureau de Poste,2300,BLERANCOURT,2093,49.517295,3.151516,49.517295
00223A,BOHAIN EN VERMANDOIS,Bureau de Poste,2110,BOHAIN EN VERMANDOIS,2095,49.98706,3.454553,49.98706
00231A,BUCY LE LONG BP,Bureau de Poste,2880,BUCY LE LONG,2131,49.390002,3.396342,49.390002
00233A,BUIRONFOSSE BP,Bureau de Poste,2620,BUIRONFOSSE,2135,49.964268,3.836642,49.964268
00235A,LE CATELET AP,Agence postale communale,2420,LE CATELET,2143,50.002763,3.246182,50.002763
00242A,CIRY SALSOGNE AP,Agence postale communale,2220,CIRY SALSOGNE,2195,49.363899,3.463001,49.363899
00243A,CLAIRFONTAINE AP,Agence postale communale,2260,CLAIRFONTAINE,2197,49.982412,3.990205,49.982412
00245A,COINCY BP,Bureau de Poste,2210,COINCY,2203,49.161804,3.42115,49.161804
00249A,COUCY LES EPPES AP,Agence postale communale,2840,COUCY LES EPPES,2218,49.551717,3.767689,49.551717
00256A,DERCY AP,Agence postale communale,2270,DERCY,2261,49.705811,3.685639,49.705811
00259A,ESSIGNY LE GRAND AP,Agence postale communale,2690,ESSIGNY LE GRAND,2287,49.775908,3.276629,49.775908
00261A,ESTREES AP,Agence postale communale,2420,ESTREES,2291,49.968136,3.284828,49.968136
00265A,ETREUX BP,Bureau de Poste,2510,ETREUX,2298,49.993264,3.655687,49.993264
00266A,TERGNIER FARGNIERS BP,Bureau de Poste,2700,TERGNIER,2738,49.6588,3.314829,49.6588
00269A,LA FERTE CHEVRESIS AP,Agence postale communale,2270,LA FERTE CHEVRESIS,2306,49.736351,3.558353,49.736351
00280A,GRUGIES AP,Agence postale communale,2680,GRUGIES,2359,49.813,3.2645,49.813
00290A,JUSSY AP,Agence postale communale,2480,JUSSY,2397,49.723647,3.233248,49.723647
00297A,LIESSE NOTRE DAME BP,Bureau de Poste,2350,LIESSE NOTRE DAME,2430,49.610482,3.803024,49.610482
00299A,MARLE BP,Bureau de Poste,2250,MARLE,2468,49.739964,3.770456,49.739964
00300A,MARLY GOMONT BP,Bureau de Poste,2120,MARLY GOMONT,2469,49.904974,3.787922,49.904974
00304A,MEZIERES SUR OISE AP,Agence postale communale,2240,MEZIERES SUR OISE,2483,49.782412,3.400364,49.782412
00307A,MONS EN LAONNOIS AP,Agence postale communale,2000,MONS EN LAONNOIS,2497,49.538273,3.553565,49.538273
00311A,MONTESCOURT LIZEROLLES BP,Bureau de Poste,2440,MONTESCOURT LIZEROLLES,2504,49.735742,3.250324,49.735742
00313A,MONT NOTRE DAME AP,Agence postale communale,2220,MONT NOTRE DAME,2520,49.292206,3.579981,49.292206
00316A,MOY DE L AISNE BP,Bureau de Poste,2610,MOY DE L AISNE,2532,49.750699,3.365286,49.750699
00318A,NEUFCHATEL SUR AISNE AP,Agence postale communale,2190,NEUFCHATEL SUR AISNE,2541,49.431941,4.034194,49.431941
00330A,PLOMION AP,Agence postale communale,2140,PLOMION,2608,49.807268,4.016691,49.807268
00341A,ROZOY SUR SERRE BP,Bureau de Poste,2360,ROZOY SUR SERRE,2666,49.709595,4.129392,49.709595
00346A,SAINT QUENTIN BASILIQUE,Bureau de Poste,2100,ST QUENTIN,2691,49.846698,3.290367,49.846698
00350A,SERAUCOURT LE GRAND RP,Relais poste commer??ant,2790,SERAUCOURT LE GRAND,2710,49.779995,3.211608,49.779995
00356A,TRELOU SUR MARNE AP,Agence postale communale,2850,TRELOU SUR MARNE,2748,49.075475,3.609534,49.075475
00359A,URCEL AP,Agence postale communale,2000,URCEL,2755,49.493497,3.555618,49.493497
00361A,VAILLY SUR AISNE BP,Bureau de Poste,2370,VAILLY SUR AISNE,2758,49.410153,3.517976,49.410153
00365A,VENIZEL AP,Agence postale communale,2200,VENIZEL,2780,49.367025,3.394863,49.367025
00366A,VERMAND AP,Agence postale communale,2490,VERMAND,2785,49.87809,3.150701,49.87809
00368A,VERVINS BP,Bureau de Poste,2140,VERVINS,2789,49.833738,3.909473,49.833738
00370A,VIELS MAISONS BP,Bureau de Poste,2540,VIELS MAISONS,2798,48.895825,3.396105,48.895825
00377A,SAINT QUENTIN SAINT MARTIN AP,Agence postale communale,2100,ST QUENTIN,2691,49.841028,3.271197,49.841028
00384A,SAINT QUENTIN FAUBOURG D ISLE BP,Bureau de Poste,2100,ST QUENTIN,2691,49.839206,3.300552,49.839206
00386A,LAON CHAMPAGNE BP,Bureau de Poste,2000,LAON,2408,49.564325,3.642821,49.564325
00401A,BELLENAVES BP,Bureau de Poste,3330,BELLENAVES,3022,46.198896,3.07839,46.198896
00412A,LE BRETHON AP,Agence postale communale,3350,LE BRETHON,3041,46.569896,2.717087,46.569896
00415A,BUSSET AP,Agence postale communale,3270,BUSSET,3045,46.060296,3.515041,46.060296
00418A,LA CHABANNE AP,Agence postale communale,3250,LA CHABANNE,3050,46.021794,3.752227,46.021794
00434A,COULEUVRE AP,Agence postale communale,3320,COULEUVRE,3087,46.671567,2.905983,46.671567
00435A,MOULINS JACQUEMART RP,Relais poste commer??ant,3000,MOULINS,3190,46.5665,3.3324,46.5665
00436A,CRECHY AP,Agence postale communale,3150,CRECHY,3091,46.26053371,3.423658092,46.26053371
00437A,CRESSANGES AP,Agence postale communale,3240,CRESSANGES,3092,46.444579,3.160434,46.444579
00439A,CUSSET,Bureau de Poste,3300,CUSSET,3095,46.134099,3.455504,46.134099
00445A,DOMERAT,Bureau de Poste,3410,DOMERAT,3101,46.362199,2.533828,46.362199
00446A,DOMPIERRE SUR BESBRE BP,Bureau de Poste,3290,DOMPIERRE SUR BESBRE,3102,46.523532,3.679613,46.523532
00450A,EBREUIL BP,Bureau de Poste,3450,EBREUIL,3107,46.115396,3.08713,46.115396
00451A,ECHASSIERES AP,Agence postale communale,3330,ECHASSIERES,3108,46.183057,2.93456,46.183057
00452A,ESCUROLLES AP,Agence postale communale,3110,ESCUROLLES,3109,46.143354,3.263789,46.143354
00455A,ETROUSSAT AP,Agence postale communale,3140,ETROUSSAT,3112,46.219099,3.221754,46.219099
00464A,BRESNAY AP,Agence postale communale,3210,BRESNAY,3039,46.442554,3.24891,46.442554
00465A,GOUISE AP,Agence postale communale,3340,GOUISE,3124,46.411368,3.429558,46.411368
00469A,ISSERPENT AP,Agence postale communale,3120,ISSERPENT,3131,46.162799,3.608237,46.162799
00471A,JENZAT AP,Agence postale communale,3800,JENZAT,3133,46.161723,3.192468,46.161723
00475A,LENAX AP,Agence postale communale,3130,LENAX,3142,46.2985,3.8154,46.2985
00477A,LOUROUX BOURBONNAIS AP,Agence postale communale,3350,LOUROUX BOURBONNAIS,3150,46.535796,2.840546,46.535796
00479A,LURCY LEVIS BP,Bureau de Poste,3320,LURCY LEVIS,3155,46.728351,2.938454,46.728351
00488A,MONETAY SUR LOIRE AP,Agence postale communale,3470,MONETAY SUR LOIRE,3177,46.43117,3.81651,46.43117
00490A,MONTAIGU LE BLIN AP,Agence postale communale,3150,MONTAIGU LE BLIN,3179,46.2956,3.510796,46.2956
00496A,MONTVICQ BP,Bureau de Poste,3170,MONTVICQ,3189,46.320199,2.821918,46.320199
00499A,NAVES AP,Agence postale communale,3330,NAVES,3194,46.17530503,3.109431648,46.17530503
00502A,NOYANT D ALLIER BP,Bureau de Poste,3210,NOYANT D ALLIER,3202,46.482355,3.12929,46.482355
00506A,POUZY MESANGY AP,Agence postale communale,3320,POUZY MESANGY,3210,46.708492,3.00372,46.708492
00509A,RONGERES RP,Relais poste commer??ant,3150,RONGERES,3215,46.294599,3.449479,46.294599
00518A,SAINT GERAND LE PUY BP,Bureau de Poste,3150,ST GERAND LE PUY,3235,46.257372,3.512178,46.257372
00519A,SAINT GERMAIN DES FOSSES BP,Bureau de Poste,3260,ST GERMAIN DES FOSSES,3236,46.207356,3.433742,46.207356
00521A,SAINT HILAIRE BP,Bureau de Poste,3440,ST HILAIRE,3238,46.49408,3.020967,46.49408
00523A,SAINT LEOPARDIN D'AUGY AP,Agence postale communale,3160,ST LEOPARDIN D AUGY,3241,46.683514,3.104469,46.683514
00528A,SAINT SAUVIER AP,Agence postale communale,3370,ST SAUVIER,3259,46.38685,2.330665,46.38685
00539A,THIONNE RP,Relais poste commer??ant,3220,THIONNE,3284,46.404674,3.573491,46.404674
00540A,TREBAN BP,Bureau de Poste,3240,TREBAN,3287,46.404604,3.173954,46.404604
00548A,VALLON EN SULLY BP,Bureau de Poste,3190,VALLON EN SULLY,3297,46.536702,2.608566,46.536702
00550A,VAUMAS RP,Relais poste commer??ant,3220,VAUMAS,3300,46.446438,3.63052,46.446438
00552A,VENDAT BP,Bureau de Poste,3110,VENDAT,3304,46.16733,3.351169,46.16733
00560A,VILLENEUVE SUR ALLIER AP,Agence postale communale,3460,VILLENEUVE SUR ALLIER,3316,46.6607,3.247,46.6607
00563A,YGRANDE AP,Agence postale communale,3160,YGRANDE,3320,46.5525,2.9434,46.5525
00564A,YZEURE BP,Bureau de Poste,3400,YZEURE,3321,46.565314,3.354295,46.565314
00576A,VICHY LYAUTEY RP,Relais poste commer??ant,3200,VICHY,3310,46.1202,3.4321,46.1202
00578A,MOULINS CHAMPINS BP,Bureau de Poste,3000,MOULINS,3190,46.548095,3.336692,46.548095
00581A,ALLEMAGNE EN PROVENCE AP,Agence postale communale,4500,ALLEMAGNE EN PROVENCE,4004,43.782241,6.007099,43.782241
00586A,BARCELONNETTE BP,Bureau de Poste,4400,BARCELONNETTE,4019,44.387848,6.653842,44.387848
00593A,LA BRILLANNE BP,Bureau de Poste,4700,LA BRILLANNE,4034,43.9273,5.890693,43.9273
00595A,CASTELLANE BP,Bureau de Poste,4120,CASTELLANE,4039,43.846238,6.513834,43.846238
00603A,CORBIERES AP,Agence postale communale,4220,CORBIERES,4063,43.761023,5.750435,43.761023
00605A,DAUPHIN ET SAINT MAIME BP,Bureau de Poste,4300,DAUPHIN,4068,43.902978,5.78393,43.902978
00608A,ENTREVAUX BP,Bureau de Poste,4320,ENTREVAUX,4076,43.948583,6.810555,43.948583
00615A,LA JAVIE BP,Bureau de Poste,4420,LA JAVIE,4097,44.1738,6.350918,44.1738
00616A,LARCHE AP,Agence postale communale,4530,VAL D ORONAYE,4120,44.451385,6.846542,44.451385
00626A,MONTAGNAC MONTPEZAT AP,Agence postale communale,4500,MONTAGNAC MONTPEZAT,4124,43.779817,6.095171,43.779817
00631A,NOYERS SUR JABRON AP,Agence postale communale,4200,NOYERS SUR JABRON,4139,44.168525,5.828728,44.168525
00632A,ONGLES AP,Agence postale communale,4230,ST ETIENNE LES ORGUES,4141,44.027595,5.733785,44.027595
00650A,SAINT MARTIN DE BROMES AP,Agence postale communale,4800,ST MARTIN DE BROMES,4189,43.769332,5.945936,43.769332
00658A,SISTERON,Bureau de Poste,4200,SISTERON,4209,44.195478,5.94265,44.195478
00662A,THORAME HAUTE AP,Agence postale communale,4170,THORAME HAUTE,4219,44.096268,6.554226,44.096268
00664A,TURRIERS AP,Agence postale communale,4250,TURRIERS,4222,44.40086,6.16898,44.40086
00674A,LA FOUX D ALLOS BP,Bureau de Poste,4260,ALLOS,4006,44.290104,6.569434,44.290104
00680A,ARVIEUX AP,Agence postale communale,5350,ARVIEUX,5007,44.76717,6.73332,44.76717
00690A,CHATEAUROUX LES ALPES BP,Bureau de Poste,5380,CHATEAUROUX LES ALPES,5036,44.613458,6.521194,44.613458
00696A,L EPINE AP,Agence postale communale,5700,L EPINE,5048,44.41674,5.61545,44.41674
00702A,LA CHAPELLE EN VALGAUDEMAR BP,Bureau de Poste,5800,LA CHAPELLE EN VALGAUDEMAR,5064,44.816858,6.195454,44.816858
00710A,MONTMAUR AP,Agence postale communale,5400,MONTMAUR,5087,44.5709,5.8741,44.5709
00711A,LA MOTTE EN CHAMPSAUR AP,Agence postale communale,5500,LA MOTTE EN CHAMPSAUR,5090,44.731846,6.066697,44.731846
00715A,LES ORRES AP,Agence postale communale,5200,LES ORRES,5098,44.514,6.550263,44.514
00727A,SAINT CLEMENT AP,Agence postale communale,5600,ST CLEMENT SUR DURANCE,5134,44.648094,6.577918,44.648094
00732A,SAINT FIRMIN EN VALGAUDEMARD BP,Bureau de Poste,5800,ST FIRMIN EN VALGODEMARD,5142,44.781006,6.028217,44.781006
00741A,SAVINES LE LAC AP,Agence postale communale,5160,SAVINES LE LAC,5164,44.5259,6.4054,44.5259
00743A,SIGOYER BP,Bureau de Poste,5130,SIGOYER,5168,44.477796,5.976204,44.477796
00747A,VALSERRES AP,Agence postale communale,5130,VALSERRES,5176,44.487168,6.125667,44.487168
00750A,VEYNES,Bureau de Poste,5400,VEYNES,5179,44.533746,5.821095,44.533746
00753A,BRIANCON SAINTE CATHERINE,Bureau de Poste,5100,BRIANCON,5023,44.897493,6.633699,44.897493
00760A,LA BEAUME AP,Agence postale communale,5140,LA BEAUME,5019,44.552526,5.636486,44.552526
00768A,ASPREMONT AP,Agence postale communale,6790,ASPREMONT,6006,43.783692,7.243135,43.783692
00774A,BENDEJUN AP,Agence postale communale,6390,BENDEJUN,6014,43.835419,7.294997,43.835419
00784A,BRIANCONNET AP,Agence postale communale,6850,BRIANCONNET,6024,43.864005,6.757589,43.864005
00806A,FALICON AP,Agence postale communale,6950,FALICON,6060,43.748954,7.278804,43.748954
00810A,GATTIERES BP,Bureau de Poste,6510,GATTIERES,6064,43.760295,7.176638,43.760295
00816A,GUILLAUMES BP,Bureau de Poste,6470,GUILLAUMES,6071,44.088789,6.853187,44.088789
00818A,LANTOSQUE BP,Bureau de Poste,6450,LANTOSQUE,6074,43.974375,7.311678,43.974375
00820A,LUCERAM AP,Agence postale communale,6440,LUCERAM,6077,43.883543,7.360861,43.883543
00821A,MALAUSSENE AP,Agence postale communale,6710,MALAUSSENE,6078,43.927096,7.130499,43.927096
00825A,MOUGINS BP,Bureau de Poste,6250,MOUGINS,6085,43.6013,6.996279,43.6013
00841A,LA ROQUETTE SUR SIAGNE BP,Bureau de Poste,6550,LA ROQUETTE SUR SIAGNE,6108,43.598693,6.956348,43.598693
00843A,LE ROURET BP,Bureau de Poste,6650,LE ROURET,6112,43.676295,7.011914,43.676295
00846A,SAINT AUBAN AP,Agence postale communale,6850,ST AUBAN,6116,43.848688,6.726588,43.848688
00849A,SAINT ETIENNE DE TINEE BP,Bureau de Poste,6660,ST ETIENNE DE TINEE,6120,44.254851,6.925039,44.254851
00852A,ST LAURENT DU VAR DE GAULLE PAL,Bureau de Poste,6700,ST LAURENT DU VAR,6123,43.665696,7.193614,43.665696
00861A,SOSPEL BP,Bureau de Poste,6380,SOSPEL,6136,43.87847,7.44737,43.87847
00863A,THEOULE SUR MER BP,Bureau de Poste,6590,THEOULE SUR MER,6138,43.505893,6.940066,43.505893
00870A,LA TURBIE BP,Bureau de Poste,6320,LA TURBIE,6150,43.745043,7.400085,43.745043
00874A,VALLAURIS BP,Bureau de Poste,6220,VALLAURIS,6155,43.577492,7.05071,43.577492
00906A,PEONE AP,Agence postale communale,6470,PEONE,6094,44.116,6.9058,44.116
00922A,GRASSE LA BLAQUIERE AP,Agence postale communale,6130,GRASSE,6069,43.64981,6.93436,43.64981
00924A,NICE MALAUSSENA,Bureau de Poste,6000,NICE,6088,43.709796,7.263748,43.709796
00932A,CAGNES SUR MER LE CROS BP,Bureau de Poste,6800,CAGNES SUR MER,6027,43.6573,7.1654,43.6573
00939A,NICE CIMIEZ BP,Bureau de Poste,6000,NICE,6088,43.7153,7.271836,43.7153
00940A,NICE GARIBALDI,Bureau de Poste,6300,NICE,6088,43.704296,7.285407,43.704296
00951A,NICE MAGNAN BP,Bureau de Poste,6200,NICE,6088,43.689793,7.241366,43.689793
00952A,NICE L ARENAS BP,Bureau de Poste,6200,NICE,6088,43.669823,7.218357,43.669823
00953A,NICE SAINTE HELENE,Bureau de Poste,6200,NICE,6088,43.682948,7.232611,43.682948
00957A,NICE SAINT ROCH,Bureau de Poste,6300,NICE,6088,43.715396,7.290817,43.715396
00960A,ANTIBES DE GAULLE BP,Bureau de Poste,6600,ANTIBES,6004,43.581295,7.120683,43.581295
00966A,GRASSE PLASCASSIER AP,Agence postale communale,6130,GRASSE,6069,43.642994,6.97603,43.642994
00994A,ANNONAY LEVERT,Bureau de Poste,7100,ANNONAY,7010,45.239389,4.667747,45.239389
01003A,LE BEAGE BP,Bureau de Poste,7630,LE BEAGE,7026,44.849134,4.119363,44.849134
01009A,BOUCIEU LE ROI RP,Relais poste commer??ant,7270,BOUCIEU LE ROI,7040,45.036197,4.682118,45.036197
01022A,COLOMBIER LE JEUNE AP,Agence postale communale,7270,COLOMBIER LE JEUNE,7068,45.01109,4.700699,45.01109
01023A,COLOMBIER LE VIEUX AP,Agence postale communale,7410,COLOMBIER LE VIEUX,7069,45.065792,4.696241,45.065792
01024A,CORNAS AP,Agence postale communale,7130,CORNAS,7070,44.9637,4.8474,44.9637
01038A,FELINES AP,Agence postale communale,7340,FELINES,7089,45.3163,4.7286,45.3163
01042A,GROSPIERRES AP,Agence postale communale,7120,GROSPIERRES,7101,44.39624,4.2823,44.39624
01044A,ISSARLES AP,Agence postale communale,7470,ISSARLES,7106,44.863522,4.039484,44.863522
01054A,LACHAPELLE SOUS AUBENAS AP,Agence postale communale,7200,LACHAPELLE SOUS AUBENAS,7122,44.564621,4.363748,44.564621
01059A,LANARCE AP,Agence postale communale,7660,LANARCE,7130,44.728991,4.003881,44.728991
01062A,LAVILLEDIEU BP,Bureau de Poste,7170,LAVILLEDIEU,7138,44.574786,4.454008,44.574786
01066A,MARIAC AP,Agence postale communale,7160,MARIAC,7150,44.883655,4.367601,44.883655
01068A,MAUVES AP,Agence postale communale,7300,MAUVES,7152,45.039061,4.830391,45.039061
01078A,PEAUGRES AP,Agence postale communale,7340,PEAUGRES,7172,45.286625,4.729004,45.286625
01096A,SAINT ANDRE DE CRUZIERES AP,Agence postale communale,7460,ST ANDRE DE CRUZIERES,7211,44.313426,4.215419,44.313426
01097A,ST ANDRE EN VIVARAIS RP,Relais poste commer??ant,7690,SAINT ANDRE EN VIVARAIS,7212,45.120133,4.412265,45.120133
01100A,SAINT CHRISTOL AP,Agence postale communale,7160,ST CHRISTOL,7220,44.867804,4.442029,44.867804
01101A,SAINT CIRGUES EN MONTAGNE BP,Bureau de Poste,7510,ST CIRGUES EN MONTAGNE,7224,44.755328,4.0923,44.755328
01126A,SAINT PAUL LE JEUNE BP,Bureau de Poste,7460,ST PAUL LE JEUNE,7280,44.33987,4.151428,44.33987
01131A,SAINT PRIX AP,Agence postale communale,7270,ST PRIX,7290,44.943065,4.501591,44.943065
01132A,ST REMEZE AP,Agence postale communale,7700,ST REMEZE,7291,44.391863,4.50114,44.391863
01138A,SATILLIEU BP,Bureau de Poste,7290,SATILLIEU,7309,45.149709,4.614427,45.149709
01142A,LE TEIL BP,Bureau de Poste,7400,LE TEIL,7319,44.549073,4.68357,44.549073
01143A,THUEYTS,Bureau de Poste,7330,THUEYTS,7322,44.67506,4.221013,44.67506
01162A,VIVIERS BP,Bureau de Poste,7220,VIVIERS,7346,44.483279,4.687235,44.483279
01179A,ASFELD BP,Bureau de Poste,8190,ASFELD,8024,49.470981,4.119933,49.470981
01180A,ATTIGNY BP,Bureau de Poste,8130,ATTIGNY,8025,49.478022,4.578685,49.478022
01188A,BAZEILLES BP,Bureau de Poste,8140,BAZEILLES,8053,49.676782,4.978283,49.676782
01190A,BLAGNY RP,Relais poste commer??ant,8110,BLAGNY,8067,49.620708,5.191425,49.620708
01196A,CHALLERANGE RP,Relais poste commer??ant,8400,CHALLERANGE,8097,49.310142,4.745279,49.310142
01217A,LES HAUTES RIVIERES BP,Bureau de Poste,8800,LES HAUTES RIVIERES,8218,49.883562,4.842121,49.883562
01221A,LAIFOUR AP,Agence postale communale,8800,LAIFOUR,8242,49.91247,4.69289,49.91247
01222A,LAUNOIS SUR VENCE AP,Agence postale communale,8430,LAUNOIS SUR VENCE,8248,49.653869,4.538374,49.653869
01223A,LIART AP,Agence postale communale,8290,LIART,8254,49.769117,4.34022,49.769117
01230A,MAUBERT FONTAINE BP,Bureau de Poste,8260,MAUBERT FONTAINE,8282,49.867702,4.430404,49.867702
01233A,MONTHERME BP,Bureau de Poste,8800,MONTHERME,8302,49.885763,4.737987,49.885763
01234A,MONTHOIS AP,Agence postale communale,8400,MONTHOIS,8303,49.312361,4.709242,49.312361
01235A,MOUZON BP,Bureau de Poste,8210,MOUZON,8311,49.606896,5.076053,49.606896
01237A,NEUFMANIL AP,Agence postale communale,8700,NEUFMANIL,8316,49.809417,4.793558,49.809417
01240A,NOVION PORCIEN RP,Relais poste commer??ant,8270,NOVION PORCIEN,8329,49.599223,4.424548,49.599223
01241A,NOYERS PONT MAUGIS RP,Relais poste commer??ant,8350,NOYERS PONT MAUGIS,8331,49.669824,4.9553,49.669824
01245A,REMILLY AILLICOURT AP,Agence postale communale,8450,REMILLY AILLICOURT,8357,49.651852,4.994042,49.651852
01251A,ROCROI,Bureau de Poste,8230,ROCROI,8367,49.924029,4.520095,49.924029
01252A,ROUVROY SUR AUDRY RP,Relais poste commer??ant,8150,ROUVROY SUR AUDRY,8370,49.787907,4.493285,49.787907
01253A,RUMIGNY AP,Agence postale communale,8290,RUMIGNY,8373,49.807404,4.266227,49.807404
01256A,SAULCES MONCLIN RP,Relais poste commer??ant,8270,SAULCES MONCLIN,8402,49.577098,4.493876,49.577098
01258A,SEDAN TURENNE,Bureau de Poste,8200,SEDAN,8409,49.702596,4.943948,49.702596
01263A,THIN LE MOUTIER RP,Relais poste commer??ant,8460,THIN LE MOUTIER,8449,49.718762,4.504878,49.718762
01268A,VIVIER AU COURT BP,Bureau de Poste,8440,VIVIER AU COURT,8488,49.734193,4.827089,49.734193
01279A,SEDAN TORCY BP,Bureau de Poste,8200,SEDAN,8409,49.698309,4.927674,49.698309
01289A,ARTIGAT AP,Agence postale communale,9130,ARTIGAT,9019,43.135797,1.439689,43.135797
01290A,ANDORRE LA VIEILLE,Bureau de Poste,9999,ANDORRE LA VIEILLE,99130,42.5073,1.52837,42.5073
01291A,CANILLO AP,Agence postale communale,9920,CANILLO,9920,42.56628,1.59812,42.56628
01298A,SAN JULIA DE LORIA AP,Agence postale communale,9920,ST JULIA,9920,42.469047,1.492435,42.469047
01308A,BETCHAT AP,Agence postale communale,9160,BETCHAT,9054,43.09433,1.01186,43.09433
01309A,BIERT AP,Agence postale communale,9320,BIERT,9057,42.899208,1.315352,42.899208
01323A,ENGOMER BP,Bureau de Poste,9800,ENGOMER,9111,42.947997,1.058906,42.947997
01328A,LE FOSSAT BP,Bureau de Poste,9130,LE FOSSAT,9124,43.174468,1.405913,43.174468
01330A,GANAC AP,Agence postale communale,9000,GANAC,9130,42.94743,1.56375,42.94743
01343A,MASSAT BP,Bureau de Poste,9320,MASSAT,9182,42.889697,1.345096,42.889697
01347A,MERENS LES VALS AP,Agence postale communale,9110,MERENS LES VALS,9189,42.65785,1.83577,42.65785
01348A,MIREPOIX BP,Bureau de Poste,9500,MIREPOIX,9194,43.08734,1.875629,43.08734
01354A,NIAUX AP,Agence postale communale,9400,NIAUX,9217,42.813727,1.591616,42.813727
01356A,ORNOLAC USSAT LES BAINS BP,Bureau de Poste,9400,ORNOLAC USSAT LES BAINS,9221,42.81673698,1.630273575,42.81673698
01364A,RABAT LES TROIS SEIGNEURS AP,Agence postale communale,9400,RABAT LES TROIS SEIGNEURS,9241,42.855842,1.553578,42.855842
01370A,SAINTE CROIX VOLVESTRE BP,Bureau de Poste,9230,STE CROIX VOLVESTRE,9257,43.12581,1.174488,43.12581
01373A,SAINT JEAN DU FALGA BP,Bureau de Poste,9100,ST JEAN DU FALGA,9265,43.086194,1.626819,43.086194
01374A,SAINT LIZIER AP,Agence postale communale,9190,ST LIZIER,9268,43.0014197,1.137890199,43.0014197
01380A,SAINT YBARS AP,Agence postale communale,9210,ST YBARS,9277,43.238113,1.386346,43.238113
01389A,SOULAN AP,Agence postale communale,9320,SOULAN,9301,42.9122,1.23241,42.9122
01395A,VERNIOLLE BP,Bureau de Poste,9340,VERNIOLLE,9332,43.081688,1.649415,43.081688
01397A,VILLENEUVE D OLMES BP,Bureau de Poste,9300,VILLENEUVE D OLMES,9336,42.906296,1.820378,42.906296
01400A,TROYES HOTEL DE VILLE BP,Bureau de Poste,10000,TROYES,10387,48.297994,4.074028,48.297994
01402A,ARCIS SUR AUBE BP,Bureau de Poste,10700,ARCIS SUR AUBE,10006,48.536489,4.140485,48.536489
01409A,BAR SUR AUBE,Bureau de Poste,10200,BAR SUR AUBE,10033,48.232555,4.705392,48.232555
01410A,BAR SUR SEINE BP,Bureau de Poste,10110,BAR SUR SEINE,10034,48.113102,4.375756,48.113102
01411A,BAYEL AP,Agence postale communale,10310,BAYEL,10035,48.198806,4.776948,48.198806
01414A,BOUILLY BP,Bureau de Poste,10320,BOUILLY,10051,48.19465,3.999098,48.19465
01416A,BREVONNES RP,Relais poste commer??ant,10220,BREVONNES,10061,48.357578,4.399607,48.357578
01417A,BRIENNE LE CHATEAU,Bureau de Poste,10500,BRIENNE LE CHATEAU,10064,48.394681,4.527123,48.394681
01421A,CHAOURCE BP,Bureau de Poste,10210,CHAOURCE,10080,48.056208,4.136758,48.056208
01422A,CHAPELLE SAINT LUC CENTRE (LA) BP,Bureau de Poste,10600,LA CHAPELLE ST LUC,10081,48.312493,4.044349,48.312493
01423A,CHARMONT SOUS BARBUISE AP,Agence postale communale,10150,CHARMONT SOUS BARBUISE,10084,48.408957,4.171545,48.408957
01425A,CHAVANGES RP,Relais poste commer??ant,10330,CHAVANGES,10094,48.508795,4.573097,48.508795
01454A,LUSIGNY SUR BARSE BP,Bureau de Poste,10270,LUSIGNY SUR BARSE,10209,48.255839,4.264722,48.255839
01456A,MAIZIERES LA GRANDE PAROISSE RP,Relais poste commer??ant,10510,MAIZIERES LA GRANDE PAROISSE,10220,48.501431,3.780194,48.501431
01464A,MONTIERAMEY RP,Relais poste commer??ant,10270,MONTIERAMEY,10249,48.230426,4.304658,48.230426
01466A,LES NOES PRES TROYES BP,Bureau de Poste,10420,LES NOES PRES TROYES,10265,48.303121,4.043171,48.303121
01472A,PLANCY L ABBAYE AP,Agence postale communale,10380,PLANCY L ABBAYE,10289,48.569181,3.967724,48.569181
01486A,ST GERMAIN AP,Agence postale communale,10120,ST GERMAIN,10340,48.256646,4.029967,48.256646
01492A,SAINTE MAURE RP,Relais poste commer??ant,10150,STE MAURE,10352,48.346107,4.059974,48.346107
01499A,SOULAINES DHUYS RP,Relais poste commer??ant,10200,SOULAINES DHUYS,10372,48.374893,4.73346,48.374893
01505A,VENDEUVRE SUR BARSE BP,Bureau de Poste,10140,VENDEUVRE SUR BARSE,10401,48.23536,4.467049,48.23536
01519A,TROYES SAINT JACQUES BP,Bureau de Poste,10000,TROYES,10387,48.303493,4.085897,48.303493
01521A,TROYES VOLTAIRE BP,Bureau de Poste,10000,TROYES,10387,48.294697,4.067099,48.294697
01522A,TROYES CHARTREUX BP,Bureau de Poste,10000,TROYES,10387,48.269996,4.082019,48.269996
01527A,ALAIRAC BP,Bureau de Poste,11290,ALAIRAC,11005,43.184093,2.241738,43.184093
01530A,ARGELIERS BP,Bureau de Poste,11120,ARGELIERS,11012,43.311606,2.910102,43.311606
01538A,BARBAIRA BP,Bureau de Poste,11800,BARBAIRA,11027,43.184893,2.511611,43.184893
01539A,BELCAIRE BP,Bureau de Poste,11340,BELCAIRE,11028,42.816532,1.960789,42.816532
01540A,BELLEGARDE DU RAZES AP,Agence postale communale,11240,BELLEGARDE DU RAZES,11032,43.109695,2.044561,43.109695
01548A,BOURIEGE AP,Agence postale communale,11300,BOURIEGE,11045,42.986667,2.166227,42.986667
01553A,BRUGAIROLLES AP,Agence postale communale,11300,BRUGAIROLLES,11053,43.124221,2.158298,43.124221
01557A,CAMPAGNE SUR AUDE AP,Agence postale communale,11260,CAMPAGNE SUR AUDE,11063,42.916057,2.207182,42.916057
01563A,CASCASTEL DES CORBIERES AP,Agence postale communale,11360,CASCASTEL DES CORBIERES,11071,42.98465,2.760273,42.98465
01566A,CASTELNAU D AUDE AP,Agence postale communale,11700,CASTELNAU D AUDE,11077,43.231097,2.672922,43.231097
01573A,CHALABRE BP,Bureau de Poste,11230,CHALABRE,11091,42.984703,2.006947,42.984703
01576A,COUFFOULENS AP,Agence postale communale,11250,COUFFOULENS,11102,43.155812,2.306802,43.155812
01578A,COUNOZOULS AP,Agence postale communale,11140,COUNOZOULS,11104,42.73193126,2.228073758,42.73193126
01582A,CUCUGNAN AP,Agence postale communale,11350,CUCUGNAN,11113,42.850802,2.603627,42.850802
01583A,CUXAC CABARDES BP,Bureau de Poste,11390,CUXAC CABARDES,11115,43.36978974,2.281445756,43.36978974
01586A,DOUZENS BP,Bureau de Poste,11700,DOUZENS,11122,43.1854,2.597768,43.1854
01587A,DUILHAC SOUS PEYREPERTUSE AP,Agence postale communale,11350,DUILHAC SOUS PEYREPERTUSE,11123,42.86336,2.56607,42.86336
01588A,DURBAN CORBIERES BP,Bureau de Poste,11360,DURBAN CORBIERES,11124,42.995636,2.813908,42.995636
01594A,ESPEZEL AP,Agence postale communale,11340,ESPEZEL,11130,42.820528,2.021037,42.820528
01595A,FABREZAN BP,Bureau de Poste,11200,FABREZAN,11132,43.137457,2.700275,43.137457
01600A,FITOU BP,Bureau de Poste,11510,FITOU,11144,42.893633,2.979348,42.893633
01603A,FONTIERS CABARDES AP,Agence postale communale,11390,FONTIERS CABARDES,11150,43.369631,2.247709,43.369631
01605A,GAJA LA SELVE AP,Agence postale communale,11270,GAJA LA SELVE,11159,43.194882,1.896083,43.194882
01607A,GRUISSAN BP,Bureau de Poste,11430,GRUISSAN,11170,43.105162,3.085576,43.105162
01609A,LABASTIDE D ANJOU BP,Bureau de Poste,11320,LABASTIDE D ANJOU,11178,43.347904,1.849689,43.347904
01611A,LAGRASSE BP,Bureau de Poste,11220,LAGRASSE,11185,43.091704,2.618724,43.091704
01617A,LASSERRE DE PROUILLE AP,Agence postale communale,11270,LASSERRE DE PROUILLE,11193,43.178626,2.084061,43.178626
01619A,LAURABUC AP,Agence postale communale,11400,LAURABUC,11195,43.247627,1.981316,43.247627
01620A,LAURAGUEL AP,Agence postale communale,11300,LAURAGUEL,11197,43.098138,2.173852,43.098138
01622A,LAVALETTE BP,Bureau de Poste,11290,LAVALETTE,11199,43.185102,2.267668,43.185102
01629A,MAILHAC BP,Bureau de Poste,11120,MAILHAC,11212,43.303858,2.826666,43.303858
01636A,MAS SAINTES PUELLES AP,Agence postale communale,11400,MAS SAINTES PUELLES,11225,43.312493,1.87683,43.312493
01644A,MONTREDON DES CORBIERES BP,Bureau de Poste,11100,MONTREDON DES CORBIERES,11255,43.190194,2.925066,43.190194
01647A,MOUSSOULENS BP,Bureau de Poste,11170,MOUSSOULENS,11259,43.280178,2.230102,43.280178
01649A,MOUX BP,Bureau de Poste,11700,MOUX,11261,43.180225,2.652087,43.180225
01677A,PUIVERT AP,Agence postale communale,11230,PUIVERT,11303,42.920097,2.046916,42.920097
01685A,ROQUEFEUIL AP,Agence postale communale,11340,ROQUEFEUIL,11320,42.820798,1.995108,42.820798
01689A,ROUFFIAC D AUDE AP,Agence postale communale,11250,ROUFFIAC D AUDE,11325,43.127725,2.298893,43.127725
01692A,SAINT ANDRE DE ROQUELONGUE BP,Bureau de Poste,11200,ST ANDRE DE ROQUELONGUE,11332,43.114901,2.836589,43.114901
01696A,SAINT DENIS AP,Agence postale communale,11310,ST DENIS,11339,43.360491,2.218879,43.360491
01700A,SAINT MARCEL SUR AUDE BP,Bureau de Poste,11120,ST MARCEL SUR AUDE,11353,43.244962,2.924593,43.244962
01724A,VERZEILLE AP,Agence postale communale,11250,VERZEILLE,11408,43.125979,2.325143,43.125979
01725A,VIGNEVIEILLE AP,Agence postale communale,11330,VIGNEVIEILLE,11409,43.005748,2.524597,43.005748
01739A,VILLESEQUE DES CORBIERES AP,Agence postale communale,11360,VILLESEQUE DES CORBIERES,11436,43.014676,2.850094,43.014676
01752A,CARCASSONNE LA CONTE BP,Bureau de Poste,11000,CARCASSONNE,11069,43.209927,2.369087,43.209927
01754A,CARCASSONNE IENA BP,Bureau de Poste,11000,CARCASSONNE,11069,43.216697,2.345418,43.216697
01764A,LES ALBRES AP,Agence postale communale,12220,LES ALBRES,12003,44.53761,2.172949,44.53761
01769A,AURIAC LAGAST AP,Agence postale communale,12120,AURIAC LAGAST,12015,44.146694,2.580327,44.146694
01776A,BOUILLAC AP,Agence postale communale,12300,BOUILLAC,12030,44.574429,2.161605,44.574429
01777A,BOZOULS BP,Bureau de Poste,12340,BOZOULS,12033,44.469961,2.720258,44.469961
01780A,CALMONT CEIGNAC AP,Agence postale communale,12450,CALMONT,12043,44.272634,2.524301,44.272634
01787A,LA CAPELLE BLEYS AP,Agence postale communale,12240,LA CAPELLE BLEYS,12054,44.294813,2.182746,44.294813
01792A,LA CAVALERIE BP,Bureau de Poste,12230,LA CAVALERIE,12063,44.008106,3.154978,44.008106
01797A,COLOMBIES AP,Agence postale communale,12240,COLOMBIES,12068,44.343768,2.336802,44.343768
01800A,COMPS AP,Agence postale communale,12120,COMPS LA GRAND VILLE,12073,44.230194,2.566192,44.230194
01805A,COUPIAC BP,Bureau de Poste,12550,COUPIAC,12080,43.954675,2.581261,43.954675
01808A,SAINT IZAIRE RP,Relais poste commer??ant,12480,ST IZAIRE,12228,43.97479,2.720768,43.97479
01814A,ESPEYRAC AP,Agence postale communale,12140,ESPEYRAC,12097,44.64145,2.52494,44.64145
01825A,GOUTRENS RP,Agence postale intercommunale,12390,GOUTRENS,12111,44.44288,2.370668,44.44288
01826A,GRAMOND AP,Agence postale communale,12160,GRAMOND,12113,44.26494,2.364933,44.26494
01828A,L HOSPITALET DU LARZAC AP,Agence postale communale,12230,L HOSPITALET DU LARZAC,12115,43.973252,3.195486,43.973252
01836A,LASSOUTS AP,Agence postale communale,12500,LASSOUTS,12124,44.486784,2.864203,44.486784
01841A,LUC LA PRIMAUBE,Bureau de Poste,12450,LUC LA PRIMAUBE,12133,44.293706,2.561153,44.293706
01845A,MARNHAGUES ET LATOUR AP,Agence postale communale,12540,MARNHAGUES ET LATOUR,12139,43.872612,3.030396,43.872612
01854A,MONTLAUR RP,Relais poste commer??ant,12400,MONTLAUR,12154,43.878832,2.833431,43.878832
01855A,FONDAMENTE AP,Agence postale communale,12540,FONDAMENTE,12155,43.876231,3.123416,43.876231
01862A,NAUCELLE BP,Bureau de Poste,12800,NAUCELLE,12169,44.197307,2.342778,44.197307
01866A,OLEMPS BP,Bureau de Poste,12510,OLEMPS,12174,44.341541,2.553988,44.341541
01874A,REQUISTA BP,Bureau de Poste,12170,REQUISTA,12197,44.032903,2.536048,44.032903
01875A,RIEUPEYROUX BP,Bureau de Poste,12240,RIEUPEYROUX,12198,44.307438,2.236934,44.307438
01880A,SAINT AFFRIQUE,Bureau de Poste,12400,ST AFFRIQUE,12208,43.957697,2.88898,43.957697
01883A,SAINT BEAUZELY AP,Agence postale communale,12620,ST BEAUZELY,12213,44.166335,2.957279,44.166335
01885A,SAINT CHRISTOPHE VALLON AP,Agence postale communale,12330,ST CHRISTOPHE VALLON,12215,44.470476,2.412468,44.470476
01897A,SAINTE RADEGONDE AP,Agence postale communale,12850,STE RADEGONDE,12241,44.338354,2.626133,44.338354
01898B,LES BRUYERES AP,Agence postale communale,92270,BOIS COLOMBES,92009,48.90869354,2.262045638,48.90869354
01899A,SAINT ROME DE TARN BP,Bureau de Poste,12490,ST ROME DE TARN,12244,44.048638,2.897706,44.048638
01900A,SAINT SALVADOU AP,Agence postale communale,12200,LE BAS SEGALA,12021,44.341838,2.136647,44.341838
01901A,SAINT SANTIN AP,Agence postale communale,12300,ST SANTIN,12246,44.650102,2.216602,44.650102
01904A,SAINT SEVER DU MOUSTIER AP,Agence postale communale,12370,ST SEVER DU MOUSTIER,12249,43.77697,2.70099,43.77697
01908A,SALMIECH AP,Agence postale communale,12120,SALMIECH,12255,44.180526,2.570776,44.180526
01927A,VABRE TIZAC AP,Agence postale communale,12240,VABRE TIZAC,12285,44.270052,2.150201,44.270052
01933A,VILLEFRANCHE DE PANAT BP,Bureau de Poste,12430,VILLEFRANCHE DE PANAT,12299,44.088192,2.704569,44.088192
01935A,VILLENEUVE BP,Bureau de Poste,12260,VILLENEUVE,12301,44.438361,2.033311,44.438361
01954A,ARLES LES LICES,Bureau de Poste,13200,ARLES,13004,43.675302,4.629382,43.675302
01962A,BERRE L ETANG,Bureau de Poste,13130,BERRE L ETANG,13014,43.478323,5.169542,43.478323
01963A,BOUC BEL AIR,Bureau de Poste,13320,BOUC BEL AIR,13015,43.451299,5.412519,43.451299
01964B,CHICONI AP,Agence postale communale,97670,CHICONI,97605,-12.8327,45.11379,-12.8327
01976A,LA CIOTAT,Bureau de Poste,13600,LA CIOTAT,13028,43.175798,5.604049,43.175798
01977A,CORNILLON CONFOUX AP,Agence postale communale,13250,CORNILLON CONFOUX,13029,43.567099,5.068739,43.567099
01981A,ENSUES LA REDONNE BP,Bureau de Poste,13820,ENSUES LA REDONNE,13033,43.354245,5.203674,43.354245
01983A,EYGUIERES,Bureau de Poste,13430,EYGUIERES,13035,43.695127,5.033323,43.695127
01986A,FONTVIEILLE BP,Bureau de Poste,13990,FONTVIEILLE,13038,43.725418,4.70832,43.725418
01990A,GEMENOS BP,Bureau de Poste,13420,GEMENOS,13042,43.297533,5.629215,43.297533
01996A,JOUQUES BP,Bureau de Poste,13490,JOUQUES,13048,43.637116,5.640635,43.637116
01998A,LAMBESC,Bureau de Poste,13410,LAMBESC,13050,43.654861,5.263299,43.654861
02004A,MARTIGUES FERRIERES,Bureau de Poste,13500,MARTIGUES,13056,43.413591,5.056178,43.413591
02010A,MIMET BP,Bureau de Poste,13105,MIMET,13062,43.413441,5.506393,43.413441
02017A,PELISSANNE BP,Bureau de Poste,13330,PELISSANNE,13069,43.630793,5.154486,43.630793
02024A,PLAN D ORGON BP,Bureau de Poste,13750,PLAN D ORGON,13076,43.809454,4.998648,43.809454
02028A,LE PUY STE REPARADE BP,Bureau de Poste,13610,LE PUY STE REPARADE,13080,43.662881,5.434088,43.662881
02035A,ROUSSET BP,Bureau de Poste,13790,ROUSSET,13087,43.48004,5.623219,43.48004
02042A,SAINTES MARIES DE LA MER BP,Bureau de Poste,13460,SAINTES MARIES DE LA MER,13096,43.450824,4.429437,43.450824
02045A,SAINT PAUL LEZ DURANCE BP,Bureau de Poste,13115,ST PAUL LES DURANCE,13099,43.687313,5.708395,43.687313
02051A,SENAS BP,Bureau de Poste,13560,SENAS,13105,43.746447,5.076372,43.746447
02059A,VENELLES,Bureau de Poste,13770,VENELLES,13113,43.598151,5.484938,43.598151
02068A,ISTRES ARISTIDE BRIAND BP,Bureau de Poste,13800,ISTRES,13047,43.514012,4.985456,43.514012
02070A,MARSEILLE LA CASTELLANE BP,Bureau de Poste,13016,MARSEILLE,13216,43.366331,5.343039,43.366331
02071A,MARSEILLE LE MERLAN BP,Bureau de Poste,13014,MARSEILLE,13214,43.336396,5.407023,43.336396
02077A,AUBAGNE LE CHARREL BP,Bureau de Poste,13400,AUBAGNE,13005,43.285192,5.548367,43.285192
02081A,VITROLLES SUD BP,Bureau de Poste,13127,VITROLLES,13117,43.426077,5.278608,43.426077
02082A,MARSEILLE CAPELETTE BP,Bureau de Poste,13010,MARSEILLE,13210,43.282798,5.402373,43.282798
02090A,VITROLLES ROUCAS BP,Bureau de Poste,13127,VITROLLES,13117,43.458604,5.249372,43.458604
02093A,MARSEILLE PORTE D AIX BP,Bureau de Poste,13001,MARSEILLE,13201,43.301433,5.374271,43.301433
02104A,MARSEILLE SAINT GINIEZ,Bureau de Poste,13008,MARSEILLE,13208,43.2709,5.389444,43.2709
02105A,LA CIOTAT SAINT JEAN BP,Bureau de Poste,13600,LA CIOTAT,13028,43.189398,5.626637,43.189398
02107A,CABRIES AP,Agence postale communale,13480,CABRIES,13019,43.441331,5.379967,43.441331
02130A,LANCON PROVENCE VAL DE SIBOURG AP,Agence postale communale,13680,LANCON PROVENCE,13051,43.583385,5.211991,43.583385
02142A,AIX EN PROVENCE PUYRICARD BP,Bureau de Poste,13540,PUYRICARD,13001,43.582134,5.420826,43.582134
02144A,ARLES MAS THIBERT BP,Bureau de Poste,13104,MAS THIBERT,13004,43.55669,4.729436,43.55669
02160A,MARSEILLE L ESTAQUE BP,Bureau de Poste,13016,MARSEILLE,13216,43.359494,5.317231,43.359494
02164A,MARSEILLE JOLIETTE,Bureau de Poste,13002,MARSEILLE,13202,43.305,5.3673,43.305
02167A,MARSEILLE SAINT ANTOINE,Bureau de Poste,13015,MARSEILLE,13215,43.3689,5.3566,43.3689
02169A,MARSEILLE SAINT FERREOL BP,Bureau de Poste,13006,MARSEILLE,13206,43.291599,5.37901,43.291599
02183A,MARSEILLE ROUCAS BLANC BP,Bureau de Poste,13007,MARSEILLE,13207,43.280198,5.368769,43.280198
02192A,MARTIGUES CROIX SAINTE BP,Bureau de Poste,13500,MARTIGUES,13056,43.40915,5.030934,43.40915
02200A,PALUDS DE NOVES AP,Agence postale communale,13550,NOVES,13066,43.833445,4.90252,43.833445
02210A,AUNAY SUR ODON BP,Bureau de Poste,14260,LES MONTS D AUNAY,14027,49.021276,-0.632955,49.021276
02214A,BEAUMONT EN AUGE AP,Agence postale communale,14950,BEAUMONT EN AUGE,14055,49.278269,0.111146,49.278269
02220A,BEUVRON EN AUGE RP,Relais poste commer??ant,14430,BEUVRON EN AUGE,14070,49.187122,-0.045441,49.187122
02226A,BONNEVILLE LA LOUVET AP,Agence postale communale,14130,BONNEVILLE LA LOUVET,14085,49.275945,0.339802,49.275945
02233A,LE BREUIL EN AUGE AP,Agence postale communale,14130,LE BREUIL EN AUGE,14102,49.227359,0.225881,49.227359
02242A,CAMBREMER BP,Bureau de Poste,14340,CAMBREMER,14126,49.150958,0.048567,49.150958
02246A,CESNY AUX VIGNES AP,Agence postale communale,14270,CESNY AUX VIGNES,14149,49.090696,-0.120462,49.090696
02247A,CESNY BOIS HALBOUT AP,Agence postale communale,14220,CESNY BOIS HALBOUT,14150,48.987511,-0.377155,48.987511
02249A,CHEUX AP,Agence postale communale,14210,THUE ET MUE,14098,49.16550502,-0.525379245,49.16550502
02255A,CORMOLAIN AP,Agence postale communale,14240,CORMOLAIN,14182,49.130197,-0.855961,49.130197
02257A,CREULLY BP,Bureau de Poste,14480,CREULLY SUR SEULLES,14200,49.285645,-0.538827,49.285645
02258A,CREVECOEUR EN AUGE AP,Agence postale communale,14340,MEZIDON VALLEE D AUGE,14431,49.118813,0.014934,49.118813
02259A,CROISSANVILLE AP,Agence postale communale,14370,MEZIDON VALLEE D AUGE,14431,49.121591,-0.100376,49.121591
02265A,DOZULE BP,Bureau de Poste,14430,DOZULE,14229,49.231812,-0.041938,49.231812
02270A,FERVAQUES AP,Agence postale communale,14140,LIVAROT PAYS D AUGE,14371,49.041395,0.254512,49.041395
02279A,HEROUVILLE SAINT CLAIR,Bureau de Poste,14200,HEROUVILLE ST CLAIR,14327,49.203695,-0.332039,49.203695
02283A,IFS,Bureau de Poste,14123,IFS,14341,49.140192,-0.35476,49.140192
02287A,LANDELLES ET COUPIGNY AP,Agence postale communale,14380,LANDELLES ET COUPIGNY,14352,48.887,-0.9966,48.887
02303A,MERY CORBON AP,Agence postale communale,14370,MERY BISSIERES EN AUGE,14410,49.134999,-0.082871,49.134999
02310A,NEUILLY LA FORET AP,Agence postale communale,14230,ISIGNY SUR MER,14342,49.271795,-1.10023,49.271795
02316A,PONT L EVEQUE BP,Bureau de Poste,14130,PONT L EVEQUE,14514,49.286999,0.186816,49.286999
02318A,POTIGNY BP,Bureau de Poste,14420,POTIGNY,14516,48.969822,-0.241133,48.969822
02321A,ROTS AP,Agence postale communale,14980,ROTS,14543,49.204198,-0.476773,49.204198
02326A,SAINT GATIEN DES BOIS AP,Agence postale communale,14130,ST GATIEN DES BOIS,14578,49.34882159,0.185778744,49.34882159
02337A,SAINT MARTIN DE LA LIEUE BP,Bureau de Poste,14100,ST MARTIN DE LA LIEUE,14625,49.113135,0.219129,49.113135
02341A,SAINT PIERRE SUR DIVES BP,Bureau de Poste,14170,ST PIERRE EN AUGE,14654,49.019086,-0.030653,49.019086
02354A,LE TOURNEUR AP,Agence postale communale,14350,SOULEUVRE EN BOCAGE,14061,48.9639,-0.822529,48.9639
02355A,TREVIERES BP,Bureau de Poste,14710,TREVIERES,14711,49.308957,-0.906016,49.308957
02356A,TROARN BP,Bureau de Poste,14670,SALINE,14712,49.182372,-0.18239,49.182372
02362A,VERSON BP,Bureau de Poste,14790,VERSON,14738,49.156296,-0.451403,49.156296
02363A,VER SUR MER BP,Bureau de Poste,14114,VER SUR MER,14739,49.335692,-0.526732,49.335692
02364A,VIERVILLE SUR MER AP,Agence postale communale,14710,VIERVILLE SUR MER,14745,49.374144,-0.904313,49.374144
02366A,VILLERS SUR MER BP,Bureau de Poste,14640,VILLERS SUR MER,14754,49.321879,-0.004574,49.321879
02378A,CAEN VENDEUVRE BP,Bureau de Poste,14000,CAEN,14118,49.181694,-0.353459,49.181694
02384A,CAEN GRACE DE DIEU BP,Bureau de Poste,14000,CAEN,14118,49.161492,-0.36152,49.161492
02386A,TROUVILLE A AP,Agence postale communale,14360,TROUVILLE SUR MER,14715,49.361307,0.086271,49.361307
02399A,ANGLARDS DE SALERS AP,Agence postale communale,15380,ANGLARDS DE SALERS,15006,45.203292,2.439949,45.203292
02404A,AURILLAC JORDANNE,Bureau de Poste,15000,AURILLAC,15014,44.920393,2.438303,44.920393
02409A,CAYROLS AP,Agence postale communale,15290,CAYROLS,15030,44.830803,2.233818,44.830803
02412A,CHAMPAGNAC AP,Agence postale communale,15350,CHAMPAGNAC,15037,45.356763,2.39907,45.356763
02414A,MANDAILLES RP,Relais poste commer??ant,15590,MANDAILLES ST JULIEN,15113,45.070528,2.657017,45.070528
02416A,LA CHAPELLE LAURENT AP,Agence postale communale,15500,LA CHAPELLE LAURENT,15042,45.177698,3.24304,45.177698
02419A,CHAUDES AIGUES BP,Bureau de Poste,15110,CHAUDES AIGUES,15045,44.853341,3.002848,44.853341
02427A,CROS DE MONTVERT RP,Relais poste commer??ant,15150,CROS DE MONTVERT,15057,45.053293,2.147478,45.053293
02429A,DIENNE AP,Agence postale communale,15300,DIENNE,15061,45.158311,2.787817,45.158311
02430A,DRUGEAC AP,Agence postale communale,15140,DRUGEAC,15063,45.166797,2.386309,45.166797
02442A,LASCELLE AP,Agence postale communale,15590,LASCELLE MANDAILLES,15096,45.021899,2.57511,45.021899
02449A,MARCOLES BP,Bureau de Poste,15220,MARCOLES,15117,44.781849,2.352771,44.781849
02454A,MENET AP,Agence postale communale,15400,MENET,15124,45.295948,2.587384,45.295948
02456A,MONTBOUDIF AP,Agence postale communale,15190,MONTBOUDIF,15129,45.371499,2.732586,45.371499
02457A,LE MONTEIL AP,Agence postale communale,15240,LE MONTEIL,15131,45.298638,2.49988,45.298638
02472A,ROUFFIAC AP,Agence postale communale,15150,ROUFFIAC,15165,45.022799,2.13708,45.022799
02476A,SAINT BONNET DE SALERS AP,Agence postale communale,15140,ST BONNET DE SALERS,15174,45.159596,2.453741,45.159596
02485A,SAINT MARTIN SOUS VIGOUROUX RP,Relais poste commer??ant,15230,ST MARTIN SOUS VIGOUROUX,15201,44.92267,2.803023,44.92267
02486A,SAINT MARTIN VALMEROUX BP,Bureau de Poste,15140,ST MARTIN VALMEROUX,15202,45.11655,2.427085,45.11655
02496A,TALIZAT RP,Relais poste commer??ant,15170,TALIZAT,15231,45.114598,3.046637,45.114598
02527A,ANGEAC CHAMPAGNE AP,Agence postale communale,16130,ANGEAC CHAMPAGNE,16012,45.608693,-0.295574,45.608693
02531A,AUBETERRE SUR DRONNE AP,Agence postale communale,16390,AUBETERRE SUR DRONNE,16020,45.271418,0.169845,45.271418
02550A,CHABANAIS BP,Bureau de Poste,16150,CHABANAIS,16070,45.873427,0.717387,45.873427
02555A,CHARME AP,Agence postale communale,16140,CHARME,16083,45.951435,0.116375,45.951435
02556A,CHARRAS RP,Relais poste commer??ant,16380,CHARRAS,16084,45.54324,0.41535,45.54324
02560A,CHATEAUBERNARD AP,Agence postale communale,16100,CHATEAUBERNARD,16089,45.67402,-0.31535,45.67402
02561A,CHATEAUNEUF SUR CHARENTE BP,Bureau de Poste,16120,CHATEAUNEUF SUR CHARENTE,16090,45.599238,-0.054715,45.599238
02563A,CHAZELLES AP,Agence postale communale,16380,CHAZELLES,16093,45.645841,0.365797,45.645841
02568A,COULGENS BP,Bureau de Poste,16560,COULGENS,16107,45.810045,0.286255,45.810045
02579A,FLEAC BP,Bureau de Poste,16730,FLEAC,16138,45.66418573,0.093972068,45.66418573
02586A,GOURVILLE AP,Agence postale communale,16170,GOURVILLE,16156,45.829483,-0.016124,45.829483
02590A,HOULETTE RP,Relais poste commer??ant,16200,HOULETTE,16165,45.74891,-0.207049,45.74891
02592A,JARNAC BP,Bureau de Poste,16200,JARNAC,16167,45.681686,-0.174381,45.681686
02595A,JURIGNAC AP,Agence postale communale,16250,JURIGNAC,16175,45.533095,-0.03807,45.533095
02606A,MAREUIL AP,Agence postale communale,16170,MAREUIL,16208,45.77379,-0.14152,45.77379
02608A,MASSIGNAC AP,Agence postale communale,16310,MASSIGNAC,16212,45.779221,0.654444,45.779221
02610A,MERPINS AP,Agence postale communale,16100,MERPINS,16217,45.675718,-0.354873,45.675718
02612A,MONTBRON BP,Bureau de Poste,16220,MONTBRON,16223,45.66827,0.500487,45.66827
02635A,RONSENAC AP,Agence postale communale,16320,RONSENAC,16283,45.476475,0.24896,45.476475
02636A,ROUGNAC AP,Agence postale communale,16320,ROUGNAC,16285,45.53499,0.35819,45.53499
02637A,ROUILLAC BP,Bureau de Poste,16170,ROUILLAC,16286,45.776869,-0.065234,45.776869
02642A,RUFFEC,Bureau de Poste,16700,RUFFEC,16292,46.029538,0.200052,46.029538
02647A,SAINT CLAUD BP,Bureau de Poste,16450,ST CLAUD,16308,45.89472,0.465106,45.89472
02664A,SAINT YRIEIX SUR CHARENTE,Bureau de Poste,16710,ST YRIEIX SUR CHARENTE,16358,45.675046,0.126991,45.675046
02669A,SERS AP,Agence postale communale,16410,SERS,16368,45.598878,0.322093,45.598878
02675A,THEIL RABIER AP,Agence postale communale,16240,THEIL RABIER,16381,46.05065176,0.035577795,46.05065176
02680A,VALENCE RP,Relais poste commer??ant,16460,VALENCE,16392,45.887035,0.30838,45.887035
02684A,VERTEUIL SUR CHARENTE AP,Agence postale communale,16510,VERTEUIL SUR CHARENTE,16400,45.981893,0.229835,45.981893
02685A,VILLEBOIS LAVALETTE BP,Bureau de Poste,16320,VILLEBOIS LAVALETTE,16408,45.482251,0.27498,45.482251
02690A,XAMBES AP,Agence postale communale,16330,XAMBES,16423,45.826596,0.105779,45.826596
02699A,ANGOULEME LOUVEL BP,Bureau de Poste,16000,ANGOULEME,16015,45.649435,0.153811,45.649435
02700A,ANGOULEME L HOUMEAU BP,Bureau de Poste,16000,ANGOULEME,16015,45.6561,0.1615,45.6561
02702A,ANGOULEME ST CYBARD BP,Bureau de Poste,16000,ANGOULEME,16015,45.656999,0.147569,45.656999
02703A,ANGOULEME GRAND FONT RP,Relais poste commer??ant,16000,ANGOULEME,16015,45.652984,0.170649,45.652984
02708A,SOYAUX CHAMP DE MANOEUVRES BP,Bureau de Poste,16800,SOYAUX,16374,45.648397,0.185317,45.648397
02713A,AIGREFEUILLE D AUNIS BP,Bureau de Poste,17290,AIGREFEUILLE D AUNIS,17003,46.114911,-0.93591,46.114911
02723A,ASNIERES LA GIRAUD AP,Agence postale communale,17400,ASNIERES LA GIRAUD,17022,45.890839,-0.521893,45.890839
02724A,AULNAY BP,Bureau de Poste,17470,AULNAY,17024,46.020457,-0.347026,46.020457
02726A,AUTHON EBEON AP,Agence postale communale,17770,AUTHON EBEON,17026,45.835792,-0.406451,45.835792
02734A,BOISREDON AP,Agence postale communale,17150,BOISREDON,17052,45.315314,-0.537657,45.315314
02745A,BURIE BP,Bureau de Poste,17770,BURIE,17072,45.773697,-0.423253,45.773697
02746A,BUSSAC FORET AP,Agence postale communale,17210,BUSSAC FORET,17074,45.213027,-0.37054,45.213027
02758A,CHATELAILLON PLAGE,Bureau de Poste,17340,CHATELAILLON PLAGE,17094,46.076423,-1.09162,46.076423
02759A,CHENAC SAINT SEURIN D UZET AP,Agence postale communale,17120,CHENAC ST SEURIN D UZET,17098,45.516752,-0.824782,45.516752
02766A,CLERAC AP,Agence postale communale,17270,CLERAC,17110,45.182535,-0.227785,45.182535
02773A,CRAZANNES AP,Agence postale communale,17350,CRAZANNES,17134,45.84805877,-0.705323962,45.84805877
02777A,DOLUS D OLERON BP,Bureau de Poste,17550,DOLUS D OLERON,17140,45.910555,-1.260785,45.910555
02786A,ETAULES AP,Agence postale communale,17750,ETAULES,17155,45.733198,-1.099881,45.733198
02789A,FONTAINE CHALENDRAY AP,Agence postale communale,17510,FONTAINE CHALENDRAY,17162,45.94799012,-0.180584892,45.94799012
02796A,GERMIGNAC AP,Agence postale communale,17520,GERMIGNAC,17175,45.57146,-0.337797,45.57146
02797A,LES GONDS AP,Agence postale communale,17100,LES GONDS,17179,45.7153,-0.61641,45.7153
02799A,LE GUA BP,Bureau de Poste,17600,LE GUA,17185,45.726554,-0.944703,45.726554
02805A,LA JARNE RPC RP,Relais poste commer??ant,17220,LA JARNE,17193,46.128079,-1.072224,46.128079
02808A,LAGORD,Bureau de Poste,17140,LAGORD,17200,46.191069,-1.155275,46.191069
02812A,LOIRE SUR NIE RP,Relais poste commer??ant,17470,LOIRE SUR NIE,17206,45.953015,-0.284188,45.953015
02815B,HAUDIOMONT AP,Agence postale communale,55160,HAUDIOMONT,55237,49.11598106,5.559297992,49.11598106
02816A,LOULAY BP,Bureau de Poste,17330,LOULAY,17211,46.047642,-0.511935,46.047642
02817A,LUSSANT AP,Agence postale communale,17430,LUSSANT,17216,45.961136,-0.820825,45.961136
02827A,MESCHERS SUR GIRONDE BP,Bureau de Poste,17132,MESCHERS SUR GIRONDE,17230,45.559076,-0.955303,45.559076
02832A,MOEZE AP,Agence postale communale,17780,MOEZE,17237,45.9055,-1.034921,45.9055
02833A,MONTENDRE,Bureau de Poste,17130,MONTENDRE,17240,45.28647,-0.404665,45.28647
02861A,REAUX RP,Relais poste commer??ant,17500,REAUX,17295,45.477417,-0.375278,45.477417
02862A,RETAUD AP,Agence postale communale,17460,RETAUD,17296,45.678673,-0.727984,45.678673
02863A,RIVEDOUX PLAGE BP,Bureau de Poste,17940,RIVEDOUX PLAGE,17297,46.159078,-1.276276,46.159078
02864A,RIOUX AP,Agence postale communale,17460,RIOUX,17298,45.636024,-0.711815,45.636024
02868A,ROYAN PRINCIPAL,Bureau de Poste,17200,ROYAN,17306,45.6248,-1.024948,45.6248
02872A,SAINT AUGUSTIN AP,Agence postale communale,17570,ST AUGUSTIN,17311,45.67757,-1.099671,45.67757
02873A,SAINT BONNET SUR GIRONDE AP,Agence postale communale,17150,ST BONNET SUR GIRONDE,17312,45.355251,-0.660481,45.355251
02876A,SAINT CIERS CHAMPAGNE AP,Agence postale communale,17520,ST CIERS CHAMPAGNE,17316,45.443592,-0.301524,45.443592
02877A,SAINT CIERS DU TAILLON RP,Relais poste commer??ant,17240,ST CIERS DU TAILLON,17317,45.423107,-0.640557,45.423107
02880A,SAINT DIZANT DU GUA RP,Relais poste commer??ant,17240,ST DIZANT DU GUA,17325,45.430667,-0.706366,45.430667
02881A,SAINT FELIX RP,Relais poste commer??ant,17330,ST FELIX,17327,46.088802,-0.598108,46.088802
02882A,SAINT FORT SUR GIRONDE BP,Bureau de Poste,17240,ST FORT SUR GIRONDE,17328,45.460691,-0.721209,45.460691
02896A,SAINT MAIGRIN AP,Agence postale communale,17520,ST MAIGRIN,17357,45.419129,-0.280023,45.419129
02898A,SAINTE MARIE DE RE BP,Bureau de Poste,17740,STE MARIE DE RE,17360,46.152805,-1.316463,46.152805
02902A,SAINTE MEME AP,Agence postale communale,17770,STE MEME,17374,45.876026,-0.459732,45.876026
02906A,SAINT PORCHAIRE,Bureau de Poste,17250,ST PORCHAIRE,17387,45.82204,-0.786697,45.82204
02910A,SAINT SAUVANT RP,Relais poste commer??ant,17610,ST SAUVANT,17395,45.738674,-0.505379,45.738674
02936A,LE THOU AP,Agence postale communale,17290,LE THOU,17447,46.085125,-0.922453,46.085125
02945A,VAUX SUR MER BP,Bureau de Poste,17640,VAUX SUR MER,17461,45.645816,-1.061075,45.645816
02947A,VILLENEUVE LA COMTESSE AP,Agence postale communale,17330,VILLENEUVE LA COMTESSE,17474,46.096799,-0.504028,46.096799
02948A,VOUHE AP,Agence postale communale,17700,VOUHE,17482,46.147592,-0.801217,46.147592
02954A,PUILBOREAU BEAULIEU BP,Bureau de Poste,17138,PUILBOREAU,17291,46.174995,-1.117403,46.174995
02961A,LR PALLICE BP,Bureau de Poste,17000,LA ROCHELLE,17300,46.162742,-1.207451,46.162742
02965A,ST PIERRE D OLERON LA COTINIERE RP,Relais poste commer??ant,17310,ST PIERRE D OLERON,17385,45.9153,-1.326427,45.9153
02991A,BANNAY AP,Agence postale communale,18300,BANNAY,18020,47.387543,2.883449,47.387543
02998A,BLANCAFORT AP,Agence postale communale,18410,BLANCAFORT,18030,47.53202573,2.52847489,47.53202573
02999A,BLET AP,Agence postale communale,18350,BLET,18031,46.8954,2.7307,46.8954
03002A,BRECY RP,Relais poste commer??ant,18220,BRECY,18035,47.123868,2.619223,47.123868
03005A,BUE AP,Agence postale communale,18300,BUE,18039,47.30803617,2.793597185,47.30803617
03017A,CHATEAUNEUF SUR CHER BP,Bureau de Poste,18190,CHATEAUNEUF SUR CHER,18058,46.857378,2.319437,46.857378
03025A,CONCRESSAULT AP,Agence postale communale,18260,CONCRESSAULT,18070,47.4893209,2.575688196,47.4893209
03031A,DUN SUR AURON BP,Bureau de Poste,18130,DUN SUR AURON,18087,46.884146,2.571412,46.884146
03034A,ETRECHY AP,Agence postale communale,18800,ETRECHY,18090,47.162637,2.72542,47.162637
03046A,IDS SAINT ROCH AP,Agence postale communale,18170,IDS ST ROCH,18112,46.707797,2.240347,46.707797
03048A,JALOGNES AP,Agence postale communale,18300,JALOGNES,18116,47.235696,2.786179,47.235696
03050A,JOUET SUR L AUBOIS BP,Bureau de Poste,18320,JOUET SUR L AUBOIS,18118,47.04508,2.989,47.04508
03051A,JUSSY LE CHAUDRIER AP,Agence postale communale,18140,JUSSY LE CHAUDRIER,18120,47.12777063,2.935261497,47.12777063
03052A,LERE BP,Bureau de Poste,18240,LERE,18125,47.471417,2.873299,47.471417
03058A,MAREUIL SUR ARNON AP,Agence postale communale,18290,MAREUIL SUR ARNON,18137,46.88090733,2.163545843,46.88090733
03062A,MEHUN SUR YEVRE BP,Bureau de Poste,18500,MEHUN SUR YEVRE,18141,47.144042,2.216779,47.144042
03064A,MENETOU COUTURE AP,Agence postale communale,18320,MENETOU COUTURE,18143,47.04384891,2.91494525,47.04384891
03070A,MONTIGNY AP,Agence postale communale,18250,MONTIGNY,18151,47.238798,2.685199,47.238798
03072A,MORNAY AP,Agence postale communale,18600,MORNAY SUR ALLIER,18155,46.820871,3.031178,46.820871
03073A,MOROGUES AP,Agence postale communale,18220,MOROGUES,18156,47.24108501,2.59745772,47.24108501
03079A,OIZON AP,Agence postale communale,18700,OIZON,18170,47.475099,2.513161,47.475099
03083A,PRESLY AP,Agence postale communale,18380,PRESLY,18185,47.388492,2.357387,47.388492
03092A,SAINT DOULCHARD,Bureau de Poste,18230,ST DOULCHARD,18205,47.099497,2.372938,47.099497
03105A,SANCERRE,Bureau de Poste,18300,SANCERRE,18241,47.332941,2.840018,47.332941
03108A,SAVIGNY EN SANCERRE AP,Agence postale communale,18240,SAVIGNY EN SANCERRE,18246,47.44093678,2.809647482,47.44093678
03110A,SENS BEAUJEU AP,Agence postale communale,18300,SENS BEAUJEU,18249,47.32641402,2.710438878,47.32641402
03111A,SURY EN VAUX RP,Relais poste commer??ant,18300,SURY EN VAUX,18258,47.36817,2.804919,47.36817
03113A,THAUMIERS AP,Agence postale communale,18210,THAUMIERS,18261,46.821897,2.65455,46.821897
03115A,TORTERON AP,Agence postale communale,18320,TORTERON,18265,47.023823,2.962891,47.023823
03117A,UZAY LE VENON AP,Agence postale communale,18190,UZAY LE VENON,18268,46.81253839,2.460432797,46.81253839
03135A,VIERZON BOURGNEUF BP,Bureau de Poste,18100,VIERZON,18279,47.214399,2.064559,47.214399
03139A,VIERZON FORGES BP,Bureau de Poste,18100,VIERZON,18279,47.217595,2.09825,47.217595
03150A,AURIAC AP,Agence postale communale,19220,AURIAC,19014,45.204112,2.147638,45.204112
03151A,AYEN AP,Agence postale communale,19310,AYEN,19015,45.246019,1.326663,45.246019
03154A,BEAULIEU SUR DORDOGNE BP,Bureau de Poste,19120,BEAULIEU SUR DORDOGNE,19019,44.97812,1.837962,44.97812
00021A,BILLIAT RP,Relais poste commer??ant,1200,BILLIAT,1044,46.077538,5.784398,46.077538
03156A,BEYNAT BP,Bureau de Poste,19190,BEYNAT,19023,45.12420737,1.722902607,45.12420737
00026A,BREGNIER CORDON BP,Bureau de Poste,1300,BREGNIER CORDON,1058,45.641265,5.627338,45.641265
03157A,BEYSSENAC AP,Agence postale communale,19230,BEYSSENAC,19025,45.403908,1.285516,45.403908
00044A,CHATILLON EN MICHAILLE AP,Agence postale communale,1200,CHATILLON EN MICHAILLE,1091,46.142332,5.797939,46.142332
03159A,BRIGNAC LA PLAINE AP,Agence postale communale,19310,BRIGNAC LA PLAINE,19030,45.18832,1.340103,45.18832
00047A,CHAVANNES SUR SURAN RP,Relais poste commer??ant,1250,CHAVANNES SUR SURAN,1095,46.263104,5.425528,46.263104
03160A,BRIVE,Bureau de Poste,19100,BRIVE LA GAILLARDE,19031,45.156166,1.535366,45.156166
00056A,COLLONGES BP,Bureau de Poste,1550,COLLONGES,1109,46.137038,5.903005,46.137038
03163A,CHAMBERET BP,Bureau de Poste,19370,CHAMBERET,19036,45.583339,1.720181,45.583339
00061A,CORMORANCHE SUR SAONE RP,Relais poste commer??ant,1290,CORMORANCHE SUR SAONE,1123,46.240947,4.83136,46.240947
03179A,CUBLAC BP,Bureau de Poste,19520,CUBLAC,19066,45.143978,1.305672,45.143978
00068A,DORTAN BP,Bureau de Poste,1590,DORTAN,1148,46.318753,5.659455,46.318753
03184A,DONZENAC BP,Bureau de Poste,19270,DONZENAC,19072,45.22815,1.522729,45.22815
00077A,GUEREINS RP,Relais poste commer??ant,1090,GUEREINS,1183,46.10654138,4.779749672,46.10654138
03191A,FAVARS AP,Agence postale communale,19330,FAVARS,19082,45.264668,1.677993,45.264668
00079A,HOTONNES RP,Relais poste commer??ant,1260,HOTONNES,1187,45.997369,5.692759,45.997369
03200A,LACELLE AP,Agence postale communale,19170,LACELLE,19095,45.644058,1.823602,45.644058
00081A,IZERNORE BP,Bureau de Poste,1580,IZERNORE,1192,46.219927,5.554568,46.219927
03210A,LE LONZAC BP,Bureau de Poste,19470,LE LONZAC,19118,45.465804,1.731198,45.465804
00082A,JASSANS RIOTTIER BP,Bureau de Poste,1480,JASSANS RIOTTIER,1194,45.983992,4.757399,45.983992
03230A,NONARDS BP,Bureau de Poste,19120,NONARDS,19152,45.024692,1.794659,45.024692
00089A,LEYMENT AP,Agence postale communale,1150,LEYMENT,1213,45.9229,5.295251,45.9229
03233A,PERPEZAC LE BLANC BP,Bureau de Poste,19310,PERPEZAC LE BLANC,19161,45.222157,1.33131,45.222157
00093A,MANZIAT RP,Relais poste commer??ant,1570,MANZIAT,1231,46.358851,4.907076,46.358851
03235A,LE PESCHER AP,Agence postale communale,19190,LE PESCHER,19163,45.070734,1.737821,45.070734
00102A,MIONNAY RP,Relais poste commer??ant,1390,MIONNAY,1248,45.895474,4.929569,45.895474
03240A,LA ROCHE CANILLAC AP,Agence postale communale,19320,LA ROCHE CANILLAC,19174,45.196143,1.969187,45.196143
00103A,MIRIBEL,Bureau de Poste,1700,MIRIBEL,1249,45.823887,4.950582,45.823887
03243A,SADROC AP,Agence postale communale,19270,SADROC,19178,45.28277,1.549478,45.28277
00104A,MISERIEUX RP,Relais poste commer??ant,1600,MISERIEUX,1250,45.975492,4.810187,45.975492
03254A,STE FORTUNADE BP,Bureau de Poste,19490,STE FORTUNADE,19203,45.207741,1.770906,45.207741
00108A,MONTREAL LA CLUSE BP,Bureau de Poste,1460,MONTREAL LA CLUSE,1265,46.17157,5.574244,46.17157
03258A,ST JULIEN AUX BOIS AP,Agence postale communale,19220,ST JULIEN AUX BOIS,19214,45.129995,2.140977,45.129995
00121A,POLLIAT BP,Bureau de Poste,1310,POLLIAT,1301,46.248095,5.126507,46.248095
03262A,ST MARTIN SEPERT AP,Agence postale communale,19210,ST MARTIN SEPERT,19223,45.434319,1.470995,45.434319
00122A,PONCIN BP,Bureau de Poste,1450,PONCIN,1303,46.08558,5.40586,46.08558
03273A,SAINT SALVADOUR AP,Agence postale communale,19700,ST SALVADOUR,19240,45.392911,1.766266,45.392911
00131A,RUFFIEU AP,Agence postale communale,1260,RUFFIEU,1330,45.994229,5.66413,45.994229
03274A,ST SETIERS AP,Agence postale communale,19290,ST SETIERS,19241,45.697603,2.130375,45.697603
00142A,SAINT GERMAIN DE JOUX RP,Relais poste commer??ant,1130,ST GERMAIN DE JOUX,1357,46.178209,5.738635,46.178209
03276A,ST VIANCE AP,Agence postale communale,19240,ST VIANCE,19246,45.217611,1.452596,45.217611
00146A,ST JEAN SUR REYSSOUZE RP,Relais poste commer??ant,1560,ST JEAN SUR REYSSOUZE,1364,46.396667,5.062279,46.396667
03286A,SEXCLES AP,Agence postale communale,19430,SEXCLES,19259,45.045495,2.009187,45.045495
00148A,ST LAURENT SUR SAONE RP,Relais poste commer??ant,1750,ST LAURENT SUR SAONE,1370,46.303597,4.840359,46.303597
03300A,VOUTEZAC AP,Agence postale communale,19130,VOUTEZAC,19288,45.290774,1.438595,45.290774
00160A,SAINT VULBAS RP,Relais poste commer??ant,1150,ST VULBAS,1390,45.83376154,5.291443571,45.83376154
03311A,BRIVE TUJAC BP,Bureau de Poste,19100,BRIVE LA GAILLARDE,19031,45.157032,1.499117,45.157032
00165A,SIMANDRE SUR SURAN RP,Relais poste commer??ant,1250,SIMANDRE SUR SURAN,1408,46.225466,5.417014,46.225466
03324A,AREGNO AP,Agence postale communale,20220,AREGNO,2B020,42.581119,8.894678,42.581119
00169A,THOISSEY BP,Bureau de Poste,1140,THOISSEY,1420,46.173464,4.800484,46.173464
03332A,BASTIA SAINT NICOLAS,Bureau de Poste,20200,BASTIA,2B033,42.7024,9.450186,42.7024
00171A,TOSSIAT AP,Agence postale communale,1250,TOSSIAT,1422,46.139496,5.316644,46.139496
03333A,BELGODERE BP,Bureau de Poste,20226,BELGODERE,2B034,42.585693,9.017108,42.585693
00173A,TREFFORT CUISIAT BP,Bureau de Poste,1370,TREFFORT CUISIAT,1426,46.269787,5.367781,46.269787
03340A,ERBALUNGA,Bureau de Poste,20222,BRANDO,2B043,42.77505,9.47578,42.77505
00178A,LE BALMAY VIEU D IZENAVE RP,Relais poste commer??ant,1430,VIEU D IZENAVE,1441,46.094437,5.544282,46.094437
03341A,CALACUCCIA BP,Bureau de Poste,20224,CALACUCCIA,2B047,42.335899,9.016469,42.335899
00179A,VILLARS LES DOMBES BP,Bureau de Poste,1330,VILLARS LES DOMBES,1443,46.00131,5.029712,46.00131
03347A,CAMPO AP,Agence postale communale,20142,CAMPO,2A056,41.89309,9.00613,41.89309
00186A,VIRIGNIN RP,Relais poste commer??ant,1300,VIRIGNIN,1454,45.71714,5.711188,45.71714
03350A,CASALABRIVA AP,Agence postale communale,20140,CASALABRIVA,2A071,41.75407,8.93835,41.75407
00188A,PREVESSIN MOENS BP,Bureau de Poste,1280,PREVESSIN MOENS,1313,46.254191,6.079943,46.254191
03363A,CIAMANNACCE BP,Bureau de Poste,20134,CIAMANNACCE,2A089,41.95281,9.14575,41.95281
00203A,AMBLENY AP,Agence postale communale,2290,AMBLENY,2011,49.3803,3.1832,49.3803
03376A,FOZZANO BP,Bureau de Poste,20143,FOZZANO,2A118,41.69731,9.00184,41.69731
00204A,AMIFONTAINE AP,Agence postale communale,2190,AMIFONTAINE,2013,49.483189,3.916641,49.483189
03379A,GHISONACCIA,Bureau de Poste,20240,GHISONACCIA,2B123,42.017492,9.4064,42.017492
00206A,ANY MARTIN RIEUX RP,Relais poste commer??ant,2500,ANY MARTIN RIEUX,2020,49.86938,4.18821,49.86938
03384A,GUAGNO BP,Bureau de Poste,20160,GUAGNO,2A131,42.16844,8.94836,42.16844
00207A,ATHIES SOUS LAON BP,Bureau de Poste,2840,ATHIES SOUS LAON,2028,49.575695,3.679897,49.575695
03385A,GUITERA LES BAINS AP,Agence postale communale,20153,GUITERA LES BAINS,2A133,41.92483,9.07755,41.92483
00210A,BARENTON BUGNY RP,Relais poste commer??ant,2000,BARENTON BUGNY,2046,49.633262,3.649052,49.633262
03386A,L ILE ROUSSE BP,Bureau de Poste,20220,L ILE ROUSSE,2B134,42.630496,8.937931,42.630496
00216A,BEAUTOR BP,Bureau de Poste,2800,BEAUTOR,2059,49.659293,3.345595,49.659293
03391A,LORETO DI TALLANO AP,Agence postale communale,20165,LORETO DI TALLANO,2A146,41.719292,9.037159,41.719292
00218A,BELLEU BP,Bureau de Poste,2200,BELLEU,2064,49.358425,3.338417,49.358425
03396A,MERIA BP,Bureau de Poste,20287,MERIA,2B159,42.92617,9.45283,42.92617
00221A,BERRY AU BAC RP,Relais poste commer??ant,2190,BERRY AU BAC,2073,49.4018,3.89991,49.4018
03400A,MONACCIA D AULLENE BP,Bureau de Poste,20171,MONACIA D AULLENE,2A163,41.513395,9.012149,41.513395
00232A,BUCY LES PIERREPONT AP,Agence postale communale,2350,BUCY LES PIERREPONT,2133,49.645889,3.900805,49.645889
03404A,MURO BP,Bureau de Poste,20225,MURO,2B173,42.54633,8.9159,42.54633
00234A,LA CAPELLE BP,Bureau de Poste,2260,LA CAPELLE,2141,49.975193,3.916453,49.975193
03405A,NONZA BP,Bureau de Poste,20217,NONZA,2B178,42.776168,9.344093,42.776168
00238A,CHATEAU THIERRY,Bureau de Poste,2400,CHATEAU THIERRY,2168,49.043894,3.399058,49.043894
03408A,OLIVESE AP,Agence postale communale,20140,OLIVESE,2A186,41.84556,9.05596,41.84556
00240A,CHAVIGNON AP,Agence postale communale,2000,CHAVIGNON,2174,49.479599,3.52057,49.479599
03411A,OLMI CAPPELLA BP,Bureau de Poste,20259,OLMI CAPPELLA,2B190,42.52914,9.01546,42.52914
00248A,COUCY LE CHATEAU AUFFRIQUE BP,Bureau de Poste,2380,COUCY LE CHATEAU AUFFRIQUE,2217,49.52094,3.323881,49.52094
03412A,OMESSA BP,Bureau de Poste,20236,OMESSA,2B193,42.370698,9.197969,42.370698
00251A,COUVRON ET AUMENCOURTC AP,Agence postale communale,2270,COUVRON ET AUMENCOURT,2231,49.644495,3.516926,49.644495
03413A,OTA PORTO BP,Bureau de Poste,20150,OTA,2A198,42.26622,8.704518,42.26622
00272A,FLAVY LE MARTEL BP,Bureau de Poste,2520,FLAVY LE MARTEL,2315,49.714384,3.19267,49.714384
03415A,PATRIMONIO BP,Bureau de Poste,20253,PATRIMONIO,2B205,42.696797,9.361849,42.696797
00277A,GAUCHY,Bureau de Poste,2430,GAUCHY,2340,49.829898,3.281029,49.829898
03423A,PIETRALBA AP,Agence postale communale,20218,PIETRALBA,2B223,42.54557,9.18728,42.54557
00279A,GROUGIS AP,Agence postale communale,2110,GROUGIS,2358,49.944289,3.534518,49.944289
03427A,POGGIO DI NAZZA AP,Agence postale communale,20240,POGGIO DI NAZZA,2B236,42.0562,9.29706,42.0562
00288A,HOMBLIERES RP,Relais poste commer??ant,2720,HOMBLIERES,2383,49.8488,3.364105,49.8488
03429A,LA PORTA BP,Bureau de Poste,20237,LA PORTA,2B246,42.4228,9.35285,42.4228
00298A,LA MALMAISON AP,Agence postale communale,2190,LA MALMAISON,2454,49.515385,3.9801,49.515385
03432A,PRUNELLI DI CASACCONI BP,Bureau de Poste,20290,PRUNELLI DI CASACCONI,2B250,42.503859,9.402169,42.503859
00305A,MONCEAULE NEUF AP,Agence postale communale,2270,MONCEAU LE NEUF ET FAUCOUZY,2491,49.768944,3.615763,49.768944
03437A,RUTALI RPC RP,Relais poste commer??ant,20239,RUTALI,2B265,42.579451,9.365298,42.579451
00310A,MONTCORNET BP,Bureau de Poste,2340,MONTCORNET,2502,49.696474,4.018356,49.696474
03443A,SERRA DI FERRO AP,Agence postale communale,20140,SERRA DI FERRO,2A276,41.728493,8.797894,41.728493
00317A,NAUROY AP,Agence postale communale,2420,NAUROY,2539,49.9535787,3.252862458,49.9535787
03449A,SOLLACARO AP,Agence postale communale,20140,SOLLACARO,2A284,41.743992,8.912268,41.743992
00329A,PINON BP,Bureau de Poste,2320,PINON,2602,49.489639,3.447316,49.489639
03458A,SAN MARTINO DI LOTA AP,Agence postale communale,20200,SAN MARTINO DI LOTA,2B305,42.73608,9.43711,42.73608
00334A,PREMONTRE AP,Agence postale communale,2320,PREMONTRE,2619,49.544442,3.411123,49.544442
03468A,URTACA AP,Agence postale communale,20218,URTACA,2B332,42.59515,9.16545,42.59515
00337A,QUESSY CENTRE AP,Agence postale communale,2700,TERGNIER,2738,49.670524,3.300688,49.670524
03481A,ZEVACO AP,Agence postale communale,20173,ZEVACO,2A358,41.89431,9.0488,41.89431
00338A,RIBEMONT BP,Bureau de Poste,2240,RIBEMONT,2648,49.795046,3.458394,49.795046
03493A,AJACCIO SAINTE LUCIE BP,Bureau de Poste,20090,AJACCIO,2A004,41.928395,8.738441,41.928395
00342A,SAINS RICHAUMONT BP,Bureau de Poste,2120,SAINS RICHAUMONT,2668,49.824549,3.711319,49.824549
03501A,MURATELLO AP,Agence postale communale,20137,PORTO VECCHIO,2A247,41.5893,9.207447,41.5893
00343A,SAINT ERME OUTRE ET RAMECOURT BP,Bureau de Poste,2820,ST ERME OUTRE ET RAMECOURT,2676,49.522214,3.851676,49.522214
03504A,SAGONE BP,Bureau de Poste,20118,SAGONE,2A348,42.116048,8.693829,42.116048
00345A,SAINT MICHEL BP,Bureau de Poste,2830,ST MICHEL,2684,49.917837,4.133997,49.917837
03509A,AJACCIO MEZZAVIA BP,Bureau de Poste,20167,MEZZAVIA,2A004,41.952165,8.777572,41.952165
00354A,TAVAUX ET PONTSERICOURT RP,Relais poste commer??ant,2250,TAVAUX ET PONTSERICOURT,2737,49.725686,3.907827,49.725686
03519A,AISEREY BP,Bureau de Poste,21110,AISEREY,21005,47.172302,5.162093,47.172302
00355A,TERGNIER BP,Bureau de Poste,2700,TERGNIER,2738,49.656296,3.292148,49.656296
03531A,CHENOVE KENNEDY RP,Relais poste commer??ant,21300,CHENOVE,21166,47.2828,5.0232,47.2828
00364A,VENDHUILE AP,Agence postale communale,2420,VENDHUILE,2776,50.011349,3.210058,50.011349
03541A,LA BUSSIERE SUR OUCHE RP,Relais poste commer??ant,21360,LA BUSSIERE SUR OUCHE,21120,47.21736,4.71721,47.21736
00373A,VIVAISE RP,Relais poste commer??ant,2870,VIVAISE,2821,49.619679,3.560151,49.619679
03542A,BLIGNY LES BEAUNE RP,Relais poste commer??ant,21200,BLIGNY LES BEAUNE,21086,46.985609,4.824561,46.985609
00393A,AINAY LE CHATEAU BP,Bureau de Poste,3360,AINAY LE CHATEAU,3003,46.711711,2.692487,46.711711
03548A,CHAMESSON AP,Agence postale communale,21400,CHAMESSON,21134,47.791092,4.543899,47.791092
00395A,ARPHEUILLES SAINT PRIEST AP,Agence postale communale,3420,ARPHEUILLES SAINT PRIEST,3007,46.22478,2.67679,46.22478
03550A,CHAMPDOTRE AP,Agence postale communale,21130,CHAMPDOTRE,21138,47.182295,5.303539,47.182295
00416A,BUXIERES LES MINES BP,Bureau de Poste,3440,BUXIERES LES MINES,3046,46.467763,2.961532,46.467763
03551A,CHANCEAUX AP,Agence postale communale,21440,CHANCEAUX,21142,47.520383,4.717532,47.520383
00423A,CHAPPES AP,Agence postale communale,3390,CHAPPES,3058,46.388293,2.925853,46.388293
03553A,CHATILLON SUR SEINE,Bureau de Poste,21400,CHATILLON SUR SEINE,21154,47.860027,4.573675,47.860027
00438A,CREUZIER LE VIEUX AP,Agence postale communale,3300,CREUZIER LE VIEUX,3094,46.161727,3.438549,46.161727
03557A,COMBLANCHIEN AP,Agence postale communale,21700,COMBLANCHIEN,21186,47.10236356,4.920972489,47.10236356
00440A,SAINT PLAISIR AP,Agence postale communale,3160,ST PLAISIR,3251,46.623019,2.966078,46.623019
03561A,CORPEAU AP,Agence postale communale,21190,CORPEAU,21196,46.92906392,4.751859235,46.92906392
00456A,FERRIERES SUR SICHON AP,Agence postale communale,3250,FERRIERES SUR SICHON,3113,46.0252,3.6489,46.0252
03565A,DARCEY RP,Relais poste commer??ant,21150,DARCEY,21226,47.55056,4.57087,47.55056
00459A,FRANCHESSE AP,Agence postale communale,3160,FRANCHESSE,3117,46.637407,3.036715,46.637407
03570A,L ETANG VERGY RP,Relais poste commer??ant,21220,L ETANG VERGY,21254,47.17808,4.8784,47.17808
00468A,HURIEL BP,Bureau de Poste,3380,HURIEL,3128,46.373554,2.478366,46.373554
03582A,HEUILLEY SUR SAONE AP,Agence postale communale,21270,HEUILLEY SUR SAONE,21316,47.32876391,5.454212898,47.32876391
00482A,MARCILLAT EN COMBRAILLE BP,Bureau de Poste,3420,MARCILLAT EN COMBRAILLE,3161,46.166611,2.630526,46.166611
03583A,IS SUR TILLE,Bureau de Poste,21120,IS SUR TILLE,21317,47.521834,5.114132,47.521834
00486A,MOLINET BP,Bureau de Poste,3510,MOLINET,3173,46.466013,3.93647,46.466013
03591A,LIERNAIS AP,Agence postale communale,21430,LIERNAIS,21349,47.2066,4.2823,47.2066
00492A,MONTCOMBROUX LES MINES AP,Agence postale communale,3130,MONTCOMBROUX LES MINES,3181,46.351878,3.688349,46.351878
03600A,MARIGNY LE CAHOUET AP,Agence postale communale,21150,MARIGNY LE CAHOUET,21386,47.46228818,4.457920088,47.46228818
00495A,MONTMARAULT BP,Bureau de Poste,3390,MONTMARAULT,3186,46.316643,2.950659,46.316643
03603A,MESSIGNY ET VANTOUX BP,Bureau de Poste,21380,MESSIGNY ET VANTOUX,21408,47.406678,5.018553,47.406678
00498A,MURAT AP,Agence postale communale,3390,MURAT,3191,46.401732,2.910457,46.401732
03604A,MEUILLEY AP,Agence postale communale,21700,MEUILLEY,21409,47.14256248,4.876134432,47.14256248
00500A,NERIS LES BAINS BP,Bureau de Poste,3310,NERIS LES BAINS,3195,46.285949,2.662561,46.285949
03606A,MEURSAULT BP,Bureau de Poste,21190,MEURSAULT,21412,46.977619,4.770708,46.977619
00520A,SAINT GERMAIN DE SALLES AP,Agence postale communale,3140,ST GERMAIN DE SALLES,3237,46.179504,3.214666,46.179504
03613A,MOREY SAINT DENIS AP,Agence postale communale,21220,MOREY ST DENIS,21442,47.195695,4.971714,47.195695
00531A,SALIGNY SUR ROUDON AP,Agence postale communale,3470,SALIGNY SUR ROUDON,3265,46.466918,3.748484,46.466918
03617A,NOLAY BP,Bureau de Poste,21340,NOLAY,21461,46.951093,4.630541,46.951093
00538A,THIEL SUR ACOLIN AP,Agence postale communale,3230,THIEL SUR ACOLIN,3283,46.523319,3.581135,46.523319
03621A,PERNAND VERGELESSES AP,Agence postale communale,21420,PERNAND VERGELESSES,21480,47.079337,4.849183,47.079337
00543A,TREVOL AP,Agence postale communale,3460,TREVOL,3290,46.629672,3.305859,46.629672
03626A,POINCON LES LARREY AP,Agence postale communale,21330,POINCON LES LARREY,21488,47.883195,4.454407,47.883195
00544A,TREZELLES AP,Agence postale communale,3220,TREZELLES,3291,46.328976,3.592932,46.328976
03628A,PONTAILLER SUR SAONE BP,Bureau de Poste,21270,PONTAILLER SUR SAONE,21496,47.304212,5.411813,47.304212
00553A,LE VERNET AP,Agence postale communale,3200,LE VERNET,3306,46.108099,3.463238,46.108099
03632A,PRECY SOUS THIL AP,Agence postale communale,21390,PRECY SOUS THIL,21505,47.3858,4.3126,47.3858
00555A,VICHY,Bureau de Poste,3200,VICHY,3310,46.125094,3.425828,46.125094
03664A,TALANT BP,Bureau de Poste,21240,TALANT,21617,47.341297,4.995659,47.341297
00557A,VIEURE AP,Agence postale communale,3430,VIEURE,3312,46.5001,2.874871,46.5001
03674A,VENAREY LES LAUMES BP,Bureau de Poste,21150,VENAREY LES LAUMES,21663,47.538834,4.462428,47.538834
00558A,LE VILHAIN AP,Agence postale communale,3350,LE VILHAIN,3313,46.560661,2.796351,46.560661
03683A,VOUGEOT BP,Bureau de Poste,21640,VOUGEOT,21716,47.175741,4.96338,47.175741
00565A,YZEURE BATAILLOTS AP,Agence postale communale,3400,YZEURE,3321,46.5592,3.3416,46.5592
03701A,BELLE ISLE EN TERRE BP,Bureau de Poste,22810,BELLE ISLE EN TERRE,22005,48.542894,-3.39595,48.542894
00577A,VICHY JEANNE D ARC BP,Bureau de Poste,3200,VICHY,3310,46.13438,3.422958,46.13438
03712A,CARNOET AP,Agence postale communale,22160,CARNOET,22031,48.36741246,-3.519885923,48.36741246
00591A,BRAS D ASSE BP,Bureau de Poste,4270,BRAS D ASSE,4031,43.920738,6.134457,43.920738
03723A,DINAN,Bureau de Poste,22100,DINAN,22050,48.453592,-2.048098,48.453592
00600A,CLAMENSANE AP,Agence postale communale,4250,CLAMENSANE,4057,44.323064,6.069533,44.323064
03727A,EVRAN BP,Bureau de Poste,22630,EVRAN,22056,48.379096,-1.977921,48.379096
00601A,COLMARS LES ALPES BP,Bureau de Poste,4370,COLMARS LES ALPES,4061,44.181492,6.627919,44.181492
03730A,GOUAREC BP,Bureau de Poste,22570,GOUAREC,22064,48.226954,-3.179339,48.226954
00611A,ESTOUBLON AP,Agence postale communale,4270,ESTOUBLON,4084,43.943176,6.170364,43.943176
03739A,HENON AP,Agence postale communale,22150,HENON,22079,48.387316,-2.684175,48.387316
00622A,MANOSQUE,Bureau de Poste,4100,MANOSQUE,4112,43.831999,5.785918,43.831999
03744A,JUGON LES LACS BP,Bureau de Poste,22270,JUGON LES LACS,22084,48.408928,-2.323817,48.408928
00625A,MISON AP,Agence postale communale,4200,MISON,4123,44.267664,5.858534,44.267664
03756A,LANGROLAY SUR RANCE AP,Agence postale communale,22490,LANGROLAY SUR RANCE,22103,48.5537,-2.00323,48.5537
00627A,MONTCLAR AP,Agence postale communale,4140,MONTCLAR,4126,44.395494,6.336957,44.395494
03768A,LANVOLLON BP,Bureau de Poste,22290,LANVOLLON,22121,48.632042,-2.987081,48.632042
00629A,LA MOTTE DU CAIRE BP,Bureau de Poste,4250,LA MOTTE DU CAIRE,4134,44.343192,6.028152,44.343192
03774A,LOUARGAT BP,Bureau de Poste,22540,LOUARGAT,22135,48.564276,-3.33323,48.564276
00633A,ORAISON BP,Bureau de Poste,4700,ORAISON,4143,43.915992,5.918258,43.915992
03777A,MAEL PESTIVIEN BP,Bureau de Poste,22160,MAEL PESTIVIEN,22138,48.394199,-3.296734,48.394199
00638A,PUIMICHEL AP,Agence postale communale,4700,PUIMICHEL,4156,43.97363988,6.019687352,43.97363988
03779A,LA MEAUGON AP,Agence postale communale,22440,LA MEAUGON,22144,48.49963938,-2.839379876,48.49963938
00641A,REILLANNE BP,Bureau de Poste,4110,REILLANNE,4160,43.879699,5.66067,43.879699
03780A,MERDRIGNAC BP,Bureau de Poste,22230,MERDRIGNAC,22147,48.191474,-2.41495,48.191474
00644A,RIEZ BP,Bureau de Poste,4500,RIEZ,4166,43.817265,6.093307,43.817265
03782A,MONCONTOUR DE BRETAGNE AP,Agence postale communale,22510,MONCONTOUR DE BRETAGNE,22153,48.3585,-2.6352,48.3585
00647A,SAINT ANDRE LES ALPES,Bureau de Poste,4170,ST ANDRE LES ALPES,4173,43.967012,6.507832,43.967012
03787A,PAULE RP,Relais poste commer??ant,22340,PAULE,22163,48.235866,-3.443892,48.235866
00653A,SAINTE TULLE BP,Bureau de Poste,4220,STE TULLE,4197,43.786774,5.76584,43.786774
03788A,PEDERNEC BP,Bureau de Poste,22540,PEDERNEC,22164,48.597189,-3.270388,48.597189
00666A,VALENSOLE BP,Bureau de Poste,4210,VALENSOLE,4230,43.838456,5.987683,43.838456
03803A,PLEMY AP,Agence postale communale,22150,PLEMY,22184,48.336094,-2.682797,48.336094
00681A,ASPRES SUR BUECH BP,Bureau de Poste,5140,ASPRES SUR BUECH,5010,44.52133,5.752129,44.52133
03809A,PLESSALA AP,Agence postale communale,22330,LE MENE,22046,48.275736,-2.618549,48.275736
00682A,BARATIER AP,Agence postale communale,5200,BARATIER,5012,44.53849,6.49635,44.53849
03831A,PLOUGONVER AP,Agence postale communale,22810,PLOUGONVER,22216,48.48472665,-3.378033204,48.48472665
00685A,VILLARD SAINT PANCRACE AP,Agence postale communale,5100,VILLARD ST PANCRACE,5023,44.874576,6.628401,44.874576
03845A,PLUFUR AP,Agence postale communale,22310,PLUFUR,22238,48.60684,-3.57531,48.60684
00698A,EYGUIANS BP,Bureau de Poste,5300,GARDE COLOMBE,5053,44.346085,5.770599,44.346085
03848A,PLUMIEUX AP,Agence postale communale,22210,PLUMIEUX,22241,48.105599,-2.586937,48.105599
00701A,LA GRAVE BP,Bureau de Poste,5320,LA GRAVE,5063,45.046242,6.307194,45.046242
03853A,PONT MELVEZ AP,Agence postale communale,22390,PONT MELVEZ,22249,48.46056499,-3.307144382,48.46056499
00703A,GUILLESTRE BP,Bureau de Poste,5600,GUILLESTRE,5065,44.6613,6.64925,44.6613
03854A,PONTRIEUX BP,Bureau de Poste,22260,PONTRIEUX,22250,48.697225,-3.162378,48.697225
00714A,ORPIERRE AP,Agence postale communale,5700,ORPIERRE,5097,44.313011,5.691855,44.313011
03862A,LA ROCHE DERRIEN BP,Bureau de Poste,22450,LA ROCHE DERRIEN,22264,48.745638,-3.261016,48.745638
00718A,PUY SAINT VINCENT AP,Agence postale communale,5290,PUY ST VINCENT,5110,44.82875,6.49339,44.82875
03872A,SAINT CAST LE GUILDO BP,Bureau de Poste,22380,ST CAST LE GUILDO,22282,48.627245,-2.263084,48.627245
00734A,SAINT JULIEN EN CHAMPSAUR AP,Agence postale communale,5500,ST JULIEN EN CHAMPSAUR,5147,44.66008,6.129001,44.66008
03877A,SAINT GOUENO AP,Agence postale communale,22330,LE MENE,22046,48.267393,-2.56612,48.267393
00740A,LA SAULCE BP,Bureau de Poste,5110,LA SAULCE,5162,44.425159,6.007787,44.425159
03883A,SAINT NICOLAS DU PELEM BP,Bureau de Poste,22480,ST NICOLAS DU PELEM,22321,48.31507,-3.163897,48.31507
00748A,VARS STE MARIE AP,Agence postale communale,5560,VARS,5177,44.594367,6.689952,44.594367
03890A,TONQUEDEC BP,Bureau de Poste,22140,TONQUEDEC,22340,48.670598,-3.3947,48.670598
00759A,SUPER DEVOLUY AP,Agence postale communale,5250,ST ETIENNE EN DEVOLUY,5139,44.675248,5.928571,44.675248
03894A,TREDARZEC RP,Relais poste commer??ant,22220,TREDARZEC,22347,48.787514,-3.197915,48.787514
00771A,BEAULIEU SUR MER BP,Bureau de Poste,6310,BEAULIEU SUR MER,6011,43.706696,7.331168,43.706696
03899A,TREGUIER BP,Bureau de Poste,22220,TREGUIER,22362,48.787245,-3.228363,48.787245
00773A,BELVEDERE AP,Agence postale communale,6450,BELVEDERE,6013,44.015065,7.319957,44.015065
03901A,TREMEL AP,Agence postale communale,22310,TREMEL,22366,48.604596,-3.612537,48.604596
00775A,BERRE LES ALPES AP,Agence postale communale,6390,BERRE LES ALPES,6015,43.830228,7.327255,43.830228
03905A,TREVENEUC AP,Agence postale communale,22410,TREVENEUC,22377,48.663494,-2.871963,48.663494
00776A,BEUIL AP,Agence postale communale,6470,BEUIL,6016,44.094293,6.99014,44.094293
03909A,YFFINIAC,Bureau de Poste,22120,YFFINIAC,22389,48.485792,-2.676651,48.485792
00779A,BLAUSASC AP,Agence postale communale,6440,BLAUSASC,6019,43.77848,7.33823,43.77848
03920A,PLERIN LE LEGUE BP,Bureau de Poste,22190,PLERIN,22187,48.525098,-2.744699,48.525098
00780A,LA BOLLENE VESUBIE AP,Agence postale communale,6450,LA BOLLENE VESUBIE,6020,43.990866,7.332179,43.990866
03932A,LANNION BP,Bureau de Poste,22300,LANNION,22113,48.746291,-3.469266,48.746291
00783A,BREIL SUR ROYA BP,Bureau de Poste,6540,BREIL SUR ROYA,6023,43.938591,7.513523,43.938591
03934A,AHUN BP,Bureau de Poste,23150,AHUN,23001,46.086936,2.042087,46.086936
00785A,LE BROC AP,Agence postale communale,6510,LE BROC,6025,43.80902,7.169319,43.80902
03938A,AUBUSSON,Bureau de Poste,23200,AUBUSSON,23008,45.95511,2.167609,45.95511
00791A,CAP D AIL BP,Bureau de Poste,6320,CAP D AIL,6032,43.723294,7.395219,43.723294
03942A,BENEVENT L ABBAYE BP,Bureau de Poste,23210,BENEVENT L ABBAYE,23021,46.118991,1.627162,46.118991
00794A,NICE MARTIN LUTHER KING BP,Bureau de Poste,6200,NICE,6088,43.6756,7.2063,43.6756
03946A,BORD SAINT GEORGES AP,Agence postale communale,23230,BORD ST GEORGES,23026,46.261048,2.298369,46.261048
00797A,COARAZE AP,Agence postale communale,6390,COARAZE,6043,43.86423,7.294487,43.86423
03957A,CHAMBON SUR VOUEIZE BP,Bureau de Poste,23170,CHAMBON SUR VOUEIZE,23045,46.188757,2.425229,46.188757
00800A,CONTES BP,Bureau de Poste,6390,CONTES,6048,43.810877,7.313786,43.810877
03960A,LA CHAPELLE TAILLEFERT AP,Agence postale communale,23000,LA CHAPELLE TAILLEFERT,23052,46.099967,1.838356,46.099967
00824A,MOUANS SARTOUX,Bureau de Poste,6370,MOUANS SARTOUX,6084,43.619893,6.971363,43.619893
03963A,CHENERAILLES BP,Bureau de Poste,23130,CHENERAILLES,23061,46.112321,2.178052,46.112321
00826A,MOULINET AP,Agence postale communale,6380,MOULINET,6086,43.941154,7.413303,43.941154
03966A,LA COURTINE BP,Bureau de Poste,23100,LA COURTINE,23067,45.700441,2.261043,45.700441
00827A,NICE THIERS,Bureau de Poste,6000,NICE,6088,43.703499,7.260807,43.703499
03975A,FAUX LA MONTAGNE AP,Agence postale communale,23340,FAUX LA MONTAGNE,23077,45.749998,1.934289,45.749998
00839A,ROQUEFORT LES PINS,Bureau de Poste,6330,ROQUEFORT LES PINS,6105,43.667196,7.047499,43.667196
03976A,FELLETIN BP,Bureau de Poste,23500,FELLETIN,23079,45.885077,2.172515,45.885077
00857A,SAINT SAUVEUR SUR TINEE BP,Bureau de Poste,6420,ST SAUVEUR SUR TINEE,6129,44.08337362,7.104638708,44.08337362
03979A,FONTANIERES AP,Agence postale communale,23110,FONTANIERES,23083,46.106145,2.499626,46.106145
00862A,SPERACEDES AP,Agence postale communale,6530,SPERACEDES,6137,43.64813,6.857741,43.64813
03981A,FRESSELINES BP,Bureau de Poste,23450,FRESSELINES,23087,46.382859,1.68455,46.382859
00866A,LA TOUR AP,Agence postale communale,6420,LA TOUR,6144,43.946562,7.183643,43.946562
03982A,GENOUILLAC BP,Bureau de Poste,23350,GENOUILLAC,23089,46.352974,1.99231,46.352974
00869A,LA TRINITE,Bureau de Poste,6340,LA TRINITE,6149,43.743,7.312849,43.743
03985A,LE GRAND BOURG BP,Bureau de Poste,23240,LE GRAND BOURG,23095,46.160417,1.644906,46.160417
00872A,VALBONNE PRINCIPAL BP,Bureau de Poste,6560,VALBONNE,6152,43.623297,7.04696,43.623297
03998A,MAGNAT L ETRANGE LPA AP,Agence postale communale,23260,MAGNAT L ETRANGE,23115,45.7932,2.2786,45.7932
00873A,VALDEBLORE APC AP,Agence postale communale,6420,VALDEBLORE,6153,44.073121,7.167143,44.073121
04002A,MAUTES RP,Relais poste commer??ant,23190,MAUTES,23127,45.943695,2.384549,45.943695
00900A,ST ETIENNE DE TINEE AURON AP,Agence postale communale,6660,ST ETIENNE DE TINEE,6120,44.224908,6.932401,44.224908
04006A,LE MONTEIL AU VICOMTE AP,Agence postale communale,23460,LE MONTEIL AU VICOMTE,23134,45.930296,1.936638,45.930296
00907A,CANNES RANGUIN BP,Bureau de Poste,6150,CANNES,6029,43.567814,6.966615,43.567814
04019A,PIONNAT AP,Agence postale communale,23140,PIONNAT,23154,46.170942,2.025329,46.170942
00910A,CARROS VILLAGE AP,Agence postale communale,6510,CARROS,6033,43.791394,7.18529,43.791394
04020A,PONTARION BP,Bureau de Poste,23250,PONTARION,23155,45.997412,1.849268,45.997412
00912A,NICE SAINTE MARGUERITE BP,Bureau de Poste,6200,NICE,6088,43.678088,7.220194,43.678088
04022A,ROYERE DE VASSIVIERE BP,Bureau de Poste,23460,ROYERE DE VASSIVIERE,23165,45.841711,1.914397,45.841711
00914A,GRASSE ST JACQUES BP,Bureau de Poste,6130,GRASSE,6069,43.639698,6.912659,43.639698
04023A,SANNAT AP,Agence postale communale,23110,SANNAT,23167,46.119843,2.407239,46.119843
00921A,NICE LYMPIA BP,Bureau de Poste,6300,NICE,6088,43.697595,7.28382,43.697595
04032A,SAINTE FEYRE BP,Bureau de Poste,23000,STE FEYRE,23193,46.139231,1.91555,46.139231
00931A,LE CANNET ROCHEVILLE,Bureau de Poste,6110,LE CANNET,6030,43.569498,7.006339,43.569498
04038A,LE THEIL AP,Agence postale communale,23430,ST MARTIN STE CATHERINE,23217,45.961691,1.576202,45.961691
00934A,JUAN LES PINS,Bureau de Poste,6160,JUAN LES PINS,6004,43.570426,7.111339,43.570426
04042A,SAINT MOREIL AP,Agence postale communale,23400,ST MOREIL,23223,45.853553,1.689835,45.853553
00943A,NICE NOTRE DAME,Bureau de Poste,6000,NICE,6088,43.70236,7.265848,43.70236
04054A,VIDAILLAT AP,Agence postale communale,23250,VIDAILLAT,23260,45.958281,1.906196,45.958281
00955A,NICE GAMBETTA BP,Bureau de Poste,6000,NICE,6088,43.696699,7.254286,43.696699
04060A,AGONAC BP,Bureau de Poste,24460,AGONAC,24002,45.294139,0.751029,45.294139
00018A,BEREYZIAT RP,Relais poste commer??ant,1340,BEREZIAT,1040,46.366486,5.045942,46.366486
00959A,NICE PASTEUR BP,Bureau de Poste,6000,NICE,6088,43.719795,7.283638,43.719795
04061A,ANGOISSE AP,Agence postale communale,24270,ANGOISSE,24008,45.426899,1.137029,45.426899
00022A,BIZIAT AP,Agence postale communale,1290,BIZIAT,1046,46.216879,4.943519,46.216879
00979A,NICE MONT ALBAN BP,Bureau de Poste,6300,NICE,6088,43.705696,7.301036,43.705696
04062A,ANTONNE ET TRIGONANT RP,Relais poste commer??ant,24420,ANTONNE ET TRIGONANT,24011,45.212135,0.828683,45.212135
00030A,CEYZERIAT,Bureau de Poste,1250,CEYZERIAT,1072,46.179193,5.325461,46.179193
00997A,ARDOIX AP,Agence postale communale,7290,ARDOIX,7013,45.186508,4.736275,45.186508
04064A,MOULIN NEUF AP,Agence postale communale,24700,MOULIN NEUF,24297,45.009971,0.049831,45.009971
00035A,CHALLEX RP,Relais poste commer??ant,1630,CHALLEX,1078,46.181123,5.974539,46.181123
01006A,BERRIAS ET CASTELJAU AP,Agence postale communale,7460,BERRIAS ET CASTELJAU,7031,44.374905,4.200174,44.374905
04074A,BELVES BP,Bureau de Poste,24170,BELVES,24035,44.776622,1.007981,44.776622
00038A,CHAMPFROMIER AP,Agence postale communale,1410,CHAMPFROMIER,1081,46.194562,5.816555,46.194562
01010A,BOULIEU LES ANNONAY BP,Bureau de Poste,7100,BOULIEU LES ANNONAY,7041,45.270514,4.666238,45.270514
04078A,BOUNIAGUES AP,Agence postale communale,24560,BOUNIAGUES,24054,44.7587,0.5261,44.7587
00040A,CHANEINS AP,Agence postale communale,1990,CHANEINS,1083,46.097397,4.850998,46.097397
01011A,BOURG ST ANDEOL BP,Bureau de Poste,7700,BOURG ST ANDEOL,7042,44.373293,4.644933,44.373293
04096A,CASTELNAUD LA CHAPELLE BP,Bureau de Poste,24250,CASTELNAUD LA CHAPELLE,24086,44.813326,1.15196,44.813326
00050A,CHAZEY BONS RP,Relais poste commer??ant,1300,CHAZEY BONS,1098,45.803816,5.682173,45.803816
01012A,BURZET AP,Agence postale communale,7450,BURZET,7045,44.739358,4.245581,44.739358
04110A,LA CHAPELLE GONAGUET AP,Agence postale communale,24350,LA CHAPELLE GONAGUET,24108,45.230328,0.612668,45.230328
00053A,CHEZERY FORENS AP,Agence postale communale,1410,CHEZERY FORENS,1104,46.223344,5.868141,46.223344
01026A,COUX AP,Agence postale communale,7000,COUX,7072,44.732544,4.621825,44.732544
04114A,CHATRES AP,Agence postale communale,24120,CHATRES,24116,45.18584,1.20192,45.18584
00059A,CORBONOD RP,Relais poste commer??ant,1420,CORBONOD,1118,45.968551,5.809858,45.968551
01031A,DAVEZIEUX BP,Bureau de Poste,7430,DAVEZIEUX,7078,45.25714,4.705523,45.25714
04118A,CHERVEIX CUBAS BP,Bureau de Poste,24390,CHERVEIX CUBAS,24120,45.294829,1.126846,45.294829
00063A,CRAS SUR REYSSOUZE RP,Relais poste commer??ant,1340,BRESSE VALLONS,1130,46.33832,5.12807,46.33832
01036A,EMPURANY RP,Relais poste commer??ant,7270,EMPURANY,7085,45.02414,4.60897,45.02414
04121A,CORGNAC SUR L ISLE AP,Agence postale communale,24800,CORGNAC SUR L ISLE,24134,45.3761471,0.948671254,45.3761471
00065A,DAGNEUX AP,Agence postale communale,1120,DAGNEUX,1142,45.851505,5.075998,45.851505
01037A,ETABLES AP,Agence postale communale,7300,ETABLES,7086,45.100798,4.725349,45.100798
04130A,DAGLAN AP,Agence postale communale,24250,DAGLAN,24150,44.741,1.194106,44.741
00076A,GRILLY AP,Agence postale communale,1220,GRILLY,1180,46.33174,6.114522,46.33174
01048A,LABASTIDE DE VIRAC AP,Agence postale communale,7150,LABASTIDE DE VIRAC,7113,44.350551,4.401537,44.350551
04132A,DOUVILLE AP,Agence postale communale,24140,DOUVILLE,24155,44.998396,0.5855,44.998396
00095A,MARLIEUX AP,Agence postale communale,1240,MARLIEUX,1235,46.064674,5.069533,46.064674
01049A,LABEGUDE AP,Agence postale communale,7200,LABEGUDE,7116,44.647622,4.367666,44.647622
04133A,LA DOUZE AP,Agence postale communale,24330,LA DOUZE,24156,45.0616,0.863677,45.0616
00096A,MARTIGNAT AP,Agence postale communale,1100,MARTIGNAT,1237,46.209042,5.610398,46.209042
01058A,LAMASTRE,Bureau de Poste,7270,LAMASTRE,7129,44.984746,4.577537,44.984746
04141A,FIRBEIX AP,Agence postale communale,24450,FIRBEIX,24180,45.599597,0.974462,45.599597
00105A,MONTAGNAT AP,Agence postale communale,1250,MONTAGNAT,1254,46.171263,5.285941,46.171263
01060A,LARGENTIERE BP,Bureau de Poste,7110,LARGENTIERE,7132,44.542066,4.294355,44.542066
04148A,GRAND BRASSAC AP,Agence postale communale,24350,GRAND BRASSAC,24200,45.293895,0.478297,45.293895
00109A,MONTREVEL EN BRESSE BP,Bureau de Poste,1340,MONTREVEL EN BRESSE,1266,46.337705,5.128773,46.337705
01069A,MAYRES AP,Agence postale communale,7330,MAYRES,7153,44.66522,4.11652,44.66522
04151A,GROLEJAC AP,Agence postale communale,24250,GROLEJAC,24207,44.814093,1.29481,44.814093
00111A,NANTUA BP,Bureau de Poste,1130,NANTUA,1269,46.151066,5.605549,46.151066
01070A,MEYRAS BP,Bureau de Poste,7380,MEYRAS,7156,44.680763,4.267822,44.680763
04153A,ISSAC AP,Agence postale communale,24400,ISSAC,24211,45.016796,0.45071,45.016796
00114A,LE POIZAT LALLEYRAT RP,Relais poste commer??ant,1130,LE POIZAT LALLEYRIAT,1204,46.1448,5.6966,46.1448
01081A,LE POUZIN BP,Bureau de Poste,7250,LE POUZIN,7181,44.755816,4.748482,44.755816
04162A,LAMOTHE MONTRAVEL BP,Bureau de Poste,24230,LAMOTHE MONTRAVEL,24226,44.851701,0.02518,44.851701
00120A,PEYRIEU RP,Relais poste commer??ant,1300,PEYRIEU,1294,45.679273,5.676034,45.679273
01092A,RUOMS,Bureau de Poste,7120,RUOMS,7201,44.452859,4.341866,44.452859
04165A,LE LARDIN ST LAZARE BP,Bureau de Poste,24570,LE LARDIN ST LAZARE,24229,45.127747,1.226241,45.127747
00125A,PONT DE VEYLE,Bureau de Poste,1290,PONT DE VEYLE,1306,46.263775,4.886734,46.263775
01094A,SAINT ALBAN D AY BP,Bureau de Poste,7790,ST ALBAN D AY,7205,45.188938,4.638759,45.188938
04172A,MAREUIL BP,Bureau de Poste,24340,MAREUIL,24253,45.451353,0.451475,45.451353
00139A,SAINT ETIENNE DU BOIS BP,Bureau de Poste,1370,ST ETIENNE DU BOIS,1350,46.285991,5.29254,46.285991
01098A,SAINT BARTHELEMY LE MEIL AP,Agence postale communale,7160,ST BARTHELEMY LE MEIL,7215,44.88517,4.499,44.88517
04173A,MARQUAY AP,Agence postale communale,24620,MARQUAY,24255,44.943398,1.133909,44.943398
00153A,ST MAURICE DE REMENS AP,Agence postale communale,1500,ST MAURICE DE REMENS,1379,45.95911758,5.275502331,45.95911758
01099A,ST BARTHELEMY GROZON RP,Relais poste commer??ant,7270,ST BARTHELEMY GROZON,7216,44.963707,4.631601,44.963707
04174A,MARSAC SUR L ISLE BP,Bureau de Poste,24430,MARSAC SUR L ISLE,24256,45.184289,0.659862,45.184289
00164A,SEYSSEL BP,Bureau de Poste,1420,SEYSSEL,1407,45.957828,5.831891,45.957828
01102A,SAINT DESIRAT AP,Agence postale communale,7340,ST DESIRAT,7228,45.25417,4.78543,45.25417
04179A,MENSIGNAC AP,Agence postale communale,24350,MENSIGNAC,24266,45.223395,0.556466,45.223395
00166A,TENAY BP,Bureau de Poste,1230,TENAY,1416,45.918945,5.509259,45.918945
01108A,SAINT JEAN DE MUZOLS BP,Bureau de Poste,7300,ST JEAN DE MUZOLS,7245,45.082744,4.814817,45.082744
04189A,MONTIGNAC BP,Bureau de Poste,24290,MONTIGNAC,24291,45.064705,1.164535,45.064705
00168A,THOIRY BP,Bureau de Poste,1710,THOIRY,1419,46.236497,5.980417,46.236497
01115A,SAINT JUST D ARDECHE AP,Agence postale communale,7700,ST JUST D ARDECHE,7259,44.304798,4.609624,44.304798
04191A,MONTPON MENESTEROL,Bureau de Poste,24700,MONTPON MENESTEROL,24294,45.009588,0.159931,45.009588
00170A,TORCIEU RP,Relais poste commer??ant,1230,TORCIEU,1421,45.920714,5.396903,45.920714
01125A,ST MONTAN AP,Agence postale communale,7220,ST MONTAN,7279,44.438774,4.625404,44.438774
04199A,NONTRON,Bureau de Poste,24300,NONTRON,24311,45.52727,0.660546,45.52727
00174A,TREVOUX,Bureau de Poste,1600,TREVOUX,1427,45.939894,4.780766,45.939894
01127A,SAINT PERAY BP,Bureau de Poste,7130,ST PERAY,7281,44.946045,4.844788,44.946045
04204A,PERIGUEUX THEATRE,Bureau de Poste,24000,PERIGUEUX,24322,45.185298,0.717557,45.185298
00175A,VAUX EN BUGEY RP,Relais poste commer??ant,1150,VAUX EN BUGEY,1431,45.928785,5.354389,45.928785
01136A,SAINT VICTOR AP,Agence postale communale,7410,ST VICTOR,7301,45.100472,4.673861,45.100472
04205A,PETIT BERSAC AP,Agence postale communale,24600,PETIT BERSAC,24323,45.288492,0.23143,45.288492
00182A,VILLEREVERSURE RP,Relais poste commer??ant,1250,VILLEREVERSURE,1447,46.194108,5.398662,46.194108
01140A,LA SOUCHE AP,Agence postale communale,7380,LA SOUCHE,7315,44.62868,4.201706,44.62868
04209A,POMPORT AP,Agence postale communale,24240,POMPORT,24331,44.779794,0.418047,44.779794
00197A,OYONNAX ANATOLE FRANCE BP,Bureau de Poste,1100,OYONNAX,1283,46.258804,5.657085,46.258804
01144A,TOULAUD AP,Agence postale communale,7130,TOULAUD,7323,44.897006,4.818219,44.897006
04220A,SAINT ANTOINE DE BREUILH BP,Bureau de Poste,24230,ST ANTOINE DE BREUILH,24370,44.845209,0.154431,44.845209
00209A,AULNOIS SOUS LAON BP,Bureau de Poste,2000,AULNOIS SOUS LAON,2037,49.612066,3.607631,49.612066
01145A,TOURNON SUR RHONE,Bureau de Poste,7300,TOURNON SUR RHONE,7324,45.070598,4.828298,45.070598
04221A,SAINT ASTIER BP,Bureau de Poste,24110,ST ASTIER,24372,45.144607,0.528519,45.144607
00215A,BEAURIEUX BP,Bureau de Poste,2160,BEAURIEUX,2058,49.393468,3.737492,49.393468
01148A,UZER AP,Agence postale communale,7110,UZER,7327,44.518982,4.324885,44.518982
04238A,SAINT GERMAIN DU SALEMBRE BP,Bureau de Poste,24190,ST GERMAIN DU SALEMBRE,24418,45.138412,0.450272,45.138412
00224A,BOUE BP,Bureau de Poste,2450,BOUE,2103,50.012806,3.700113,50.012806
01157A,VESSEAUX AP,Agence postale communale,7200,VESSEAUX,7339,44.652789,4.443679,44.652789
04250A,SAINT MEARD DE GURCON AP,Agence postale communale,24610,ST MEARD DE GURCON,24461,44.90904,0.183781,44.90904
00225A,BOURG ET COMIN BP,Bureau de Poste,2160,BOURG ET COMIN,2106,49.397106,3.654846,49.397106
01173A,AUBENAS LES OLIVIERS BP,Bureau de Poste,7200,AUBENAS,7019,44.619168,4.379699,44.619168
04253A,SAINT PARDOUX LA RIVIERE BP,Bureau de Poste,24470,ST PARDOUX LA RIVIERE,24479,45.49319,0.744652,45.49319
00229A,BRUNEHAMEL BP,Bureau de Poste,2360,BRUNEHAMEL,2126,49.7702,4.180773,49.7702
01175A,CHEMERY SUR BAR RP,Relais poste commer??ant,8450,CHEMERY CHEHERY,8115,49.60004,4.867052,49.60004
04255A,SAINT PIERRE DE CHIGNAC BP,Bureau de Poste,24330,ST PIERRE DE CHIGNAC,24484,45.12487,0.856575,45.12487
00239A,CHAUNY,Bureau de Poste,2300,CHAUNY,2173,49.614329,3.220699,49.614329
01176A,AIGLEMONT AP,Agence postale communale,8090,AIGLEMONT,8003,49.781008,4.765117,49.781008
04257A,SAINT PIERRE D EYRAUD AP,Agence postale communale,24130,ST PIERRE D EYRAUD,24487,44.848204,0.320423,44.848204
00247A,CORBENY AP,Agence postale communale,2820,CORBENY,2215,49.461989,3.822507,49.461989
01185A,AUTRECOURT ET POURRON AP,Agence postale communale,8210,AUTRECOURT ET POURRON,8034,49.612121,5.029105,49.612121
04258A,SAINT POMPONT AP,Agence postale communale,24170,ST POMPONT,24488,44.725992,1.14697,44.725992
00252A,CRECY SUR SERRE BP,Bureau de Poste,2270,CRECY SUR SERRE,2237,49.696009,3.623853,49.696009
01197A,CHARLEVILLE MEZIERES HOTEL DE VILLE BP,Bureau de Poste,8000,CHARLEVILLE MEZIERES,8105,49.760591,4.719209,49.760591
04261A,SAINT RABIER RP,Relais poste commer??ant,24210,ST RABIER,24491,45.168588,1.154547,45.168588
00253B,NEGREVILLE RP,Relais poste commer??ant,50260,NEGREVILLE,50369,49.490512,-1.54819,49.490512
01198A,CHATEAU PORCIEN BP,Bureau de Poste,8360,CHATEAU PORCIEN,8107,49.529324,4.244207,49.529324
04263A,SAINTE SABINE BORN AP,Agence postale communale,24440,BEAUMONTOIS EN PERIGORD,24028,44.692695,0.751637,44.692695
00257A,DIZY LE GROS AP,Agence postale communale,2340,DIZY LE GROS,2264,49.629644,4.020179,49.629644
01210A,GESPUNSART RP,Relais poste commer??ant,8700,GESPUNSART,8188,49.820866,4.829963,49.820866
04264A,SAINT SAUD LACOUSSIERE AP,Agence postale communale,24470,ST SAUD LACOUSSIERE,24498,45.542299,0.819401,45.542299
00258A,ESQUEHERIES AP,Agence postale communale,2170,ESQUEHERIES,2286,49.983499,3.747435,49.983499
01214A,LA GRANDVILLE AP,Agence postale communale,8700,LA GRANDVILLE,8199,49.779626,4.795837,49.779626
04266A,SAINT VINCENT DE CONNEZAC BP,Bureau de Poste,24190,ST VINCENT DE CONNEZAC,24509,45.163695,0.396922,45.163695
00260A,ESSOMES SUR MARNE BP,Bureau de Poste,2400,ESSOMES SUR MARNE,2290,49.029699,3.37504,49.029699
01224A,LONNY RP,Relais poste commer??ant,8150,LONNY,8260,49.816581,4.58528,49.816581
04272A,SARRAZAC AP,Agence postale communale,24800,SARRAZAC,24522,45.436597,1.029596,45.436597
00263A,ETREAUPONT BP,Bureau de Poste,2580,ETREAUPONT,2295,49.902327,3.916743,49.902327
01227A,MACHAULT RP,Relais poste commer??ant,8310,MACHAULT,8264,49.354195,4.498797,49.354195
04274A,SAVIGNAC LEDRIER AP,Agence postale communale,24270,SAVIGNAC LEDRIER,24526,45.363695,1.22022,45.363695
00264A,ETREILLERS BP,Bureau de Poste,2590,ETREILLERS,2296,49.829156,3.162134,49.829156
01228A,MARGUT BP,Bureau de Poste,8370,MARGUT,8276,49.585033,5.265239,49.585033
04280A,THENON BP,Bureau de Poste,24210,THENON,24550,45.140844,1.070655,45.140844
00267A,LA FERE BP,Bureau de Poste,2800,LA FERE,2304,49.662694,3.365116,49.662694
01229A,MATTON ET CLEMENCY RP,Relais poste commer??ant,8110,MATTON ET CLEMENCY,8281,49.665586,5.203686,49.665586
04288A,VARAIGNES AP,Agence postale communale,24360,VARAIGNES,24565,45.597798,0.530844,45.597798
00271A,FESMY LE SART AP,Agence postale communale,2450,FESMY LE SART,2308,50.041621,3.678004,50.041621
01243A,POURU ST REMY AP,Agence postale communale,8140,POURU ST REMY,8343,49.6786,5.0821,49.6786
04289A,VELINES BP,Bureau de Poste,24230,VELINES,24568,44.85696,0.11374,44.85696
00273A,FOLEMBRAY BP,Bureau de Poste,2670,FOLEMBRAY,2318,49.544396,3.290113,49.544396
01250A,ROCQUIGNY RP,Relais poste commer??ant,8220,ROCQUIGNY,8366,49.69029,4.2481,49.69029
04293A,VILLARS AP,Agence postale communale,24530,VILLARS,24582,45.420291,0.751873,45.420291
00281A,VILLENEUVE SUR AISNE,Bureau de Poste,2190,VILLENEUVE SUR AISNE,2360,49.434498,3.964872,49.434498
01261A,TAGNON AP,Agence postale communale,8300,TAGNON,8435,49.43823932,4.290535512,49.43823932
04295A,VILLEFRANCHE DU PERIGORD BP,Bureau de Poste,24550,VILLEFRANCHE DU PERIGORD,24585,44.629224,1.08055,44.629224
00282A,GUISE,Bureau de Poste,2120,GUISE,2361,49.899871,3.627264,49.899871
01264A,TOURNES BP,Bureau de Poste,8090,TOURNES,8457,49.795815,4.636401,49.795815
04297A,BERGERAC VALETTE BP,Bureau de Poste,24100,BERGERAC,24037,44.858295,0.473326,44.858295
00285A,LEHAUCOURT AP,Agence postale communale,2420,LEHAUCOURT,2374,49.917741,3.277685,49.917741
01267A,VIREUX MOLHAIN BP,Bureau de Poste,8320,VIREUX MOLHAIN,8486,50.085868,4.724549,50.085868
04307A,BOULAZAC BP,Bureau de Poste,24750,BOULAZAC,24053,45.181398,0.761702,45.181398
00287A,HOLNON BP,Bureau de Poste,2760,HOLNON,2382,49.8605,3.21398,49.8605
01270A,VRIGNE AUX BOIS BP,Bureau de Poste,8330,VRIGNE AUX BOIS,8491,49.736578,4.850356,49.736578
04309A,BESANCON CHATEAUFARINE BP,Bureau de Poste,25000,BESANCON,25056,47.2157,5.946,47.2157
00295A,LESQUIELLES SAINT GERMAIN RP,Relais poste commer??ant,2120,LESQUIELLES ST GERMAIN,2422,49.924085,3.624222,49.924085
01277A,CHARLEVILLE MEZIERES HOUILLERE BP,Bureau de Poste,8000,CHARLEVILLE MEZIERES,8105,49.7825,4.7106,49.7825
04330A,BESANCON DEMANGEL BP,Bureau de Poste,25000,BESANCON,25056,47.243998,6.009595,47.243998
00302A,MENNEVRET AP,Agence postale communale,2630,MENNEVRET,2476,49.98378233,3.555288379,49.98378233
01284A,CHARLEVILLE MEZ RONDE COUTURE BP,Bureau de Poste,8000,CHARLEVILLE MEZIERES,8105,49.747799,4.72374,49.747799
04338A,BOURGUIGNON AP,Agence postale communale,25150,BOURGUIGNON,25082,47.41100945,6.775219297,47.41100945
